[
    {
        "id": "129",
        "name": "Pica d'Estats",
        "alt": "Pic d'Estats",
        "status": "Original",
        "zone": "Estats-Montcalm",
        "latitude": 42.666952,
        "longitude": 1.3978986,
        "elevation": 3143.45,
        "ele_buyse_gps": 3143.0,
        "ele_sitar_icc": 3143.1,
        "ele_ign": 3143.0,
        "prominence": null,
        "category": "main"
    },
    {
        "id": "83",
        "name": "Pic Rodó de Canalbona",
        "alt": "",
        "status": "Original",
        "zone": "Estats-Montcalm",
        "latitude": 42.6625832,
        "longitude": 1.4016988,
        "elevation": 3004.3,
        "ele_buyse_gps": 3004.0,
        "ele_sitar_icc": 3004.3,
        "ele_ign": 3004.0,
        "prominence": null,
        "category": "secondary"
    },
    {
        "id": "126",
        "name": "Pic de Sotllo",
        "alt": "Pic du Port de Sullo, Pico de Sotllo",
        "status": "Original",
        "zone": "Estats-Montcalm",
        "latitude": 42.6687125,
        "longitude": 1.3874561,
        "elevation": 3072.0,
        "ele_buyse_gps": 3072.0,
        "ele_sitar_icc": 3072.7,
        "ele_ign": 3072.0,
        "prominence": null,
        "category": "main"
    },
    {
        "id": "127",
        "name": "Pic du Montcalm",
        "alt": "Pic de Montcalm",
        "status": "Original",
        "zone": "Estats-Montcalm",
        "latitude": 42.6719036,
        "longitude": 1.4063347,
        "elevation": 3077.0,
        "ele_buyse_gps": 3077.0,
        "ele_sitar_icc": 3078.3,
        "ele_ign": 3077.0,
        "prominence": null,
        "category": "main"
    },
    {
        "id": "128",
        "name": "Pic Verdaguer",
        "alt": "",
        "status": "Original",
        "zone": "Estats-Montcalm",
        "latitude": 42.6680493,
        "longitude": 1.396855,
        "elevation": 3129.4,
        "ele_buyse_gps": 3131.0,
        "ele_sitar_icc": 3129.4,
        "ele_ign": 3131.0,
        "prominence": null,
        "category": "main"
    },
    {
        "id": "82",
        "name": "Punta de Gabarró",
        "alt": "Punta Gabarró",
        "status": "Original",
        "zone": "Estats-Montcalm",
        "latitude": 42.6654679,
        "longitude": 1.3998781,
        "elevation": 3114.6,
        "ele_buyse_gps": 3115.0,
        "ele_sitar_icc": 3110.2,
        "ele_ign": 3115.0,
        "prominence": null,
        "category": "secondary"
    },
    {
        "id": "1117",
        "name": "Cap de la Coma de Riufred",
        "alt": "",
        "status": "New",
        "zone": "Estats-Montcalm",
        "latitude": 42.6687455,
        "longitude": 1.4015231,
        "elevation": 3041.0,
        "ele_buyse_gps": 3040.0,
        "ele_sitar_icc": 3040.3,
        "ele_ign": null,
        "prominence": 10.3,
        "category": null
    },
    {
        "id": "-",
        "name": "Sotllo N",
        "alt": "Antecima N. de Sotllo",
        "status": "New",
        "zone": "Estats-Montcalm",
        "latitude": 42.6697873,
        "longitude": 1.3875262,
        "elevation": 3058.2,
        "ele_buyse_gps": 3058.0,
        "ele_sitar_icc": 3058.2,
        "ele_ign": null,
        "prominence": 11.8,
        "category": null
    },
    {
        "id": "123",
        "name": "Pic de Comaloforno",
        "alt": "",
        "status": "Original",
        "zone": "Besiberris",
        "latitude": 42.5913788,
        "longitude": 0.827831,
        "elevation": 3029.2,
        "ele_buyse_gps": 3033.0,
        "ele_sitar_icc": 3029.2,
        "ele_ign": null,
        "prominence": null,
        "category": "main"
    },
    {
        "id": "118",
        "name": "Tuca de Mulleres",
        "alt": "Cap de Mulleres, Tuc de Molières",
        "status": "Original",
        "zone": "Maladeta-Aneto",
        "latitude": 42.6294706,
        "longitude": 0.6985652,
        "elevation": 3010.1,
        "ele_buyse_gps": 3010.0,
        "ele_sitar_icc": 3009.6,
        "ele_ign": 3011.8,
        "prominence": null,
        "category": "main"
    },
    {
        "id": "122",
        "name": "Besiberri Sud",
        "alt": "",
        "status": "Original",
        "zone": "Besiberris",
        "latitude": 42.5938062,
        "longitude": 0.8259905,
        "elevation": 3023.4,
        "ele_buyse_gps": 3030.0,
        "ele_sitar_icc": 3023.4,
        "ele_ign": null,
        "prominence": null,
        "category": "main"
    },
    {
        "id": "121",
        "name": "Besiberri del Mig S",
        "alt": "Pic Jolís",
        "status": "Removed",
        "zone": "Besiberris",
        "latitude": 42.5998934,
        "longitude": 0.8249398,
        "elevation": 2995.2,
        "ele_buyse_gps": 3003.0,
        "ele_sitar_icc": 2995.2,
        "ele_ign": null,
        "prominence": null,
        "category": "main"
    },
    {
        "id": "120",
        "name": "Besiberri del Mig N",
        "alt": "Pic Simó",
        "status": "Removed",
        "zone": "Besiberris",
        "latitude": 42.5998934,
        "longitude": 0.8249398,
        "elevation": 2995.2,
        "ele_buyse_gps": 3003.0,
        "ele_sitar_icc": 2995.9,
        "ele_ign": null,
        "prominence": null,
        "category": "main"
    },
    {
        "id": "119",
        "name": "Besiberri Nord",
        "alt": "",
        "status": "Original",
        "zone": "Besiberris",
        "latitude": 42.605262,
        "longitude": 0.8263044,
        "elevation": 3008.3,
        "ele_buyse_gps": 3014.0,
        "ele_sitar_icc": 3009.9,
        "ele_ign": null,
        "prominence": 14.0,
        "category": "main"
    },
    {
        "id": "124",
        "name": "Punta de Passet",
        "alt": "Punta Célestin Passet",
        "status": "Removed",
        "zone": "Besiberris",
        "latitude": 42.589379,
        "longitude": 0.8271458,
        "elevation": 2997.6,
        "ele_buyse_gps": 2998.49,
        "ele_sitar_icc": 2997.6,
        "ele_ign": null,
        "prominence": null,
        "category": "main"
    },
    {
        "id": "125",
        "name": "Punta Alta de Comalesbienes",
        "alt": "Punta Alta",
        "status": "Original",
        "zone": "Besiberris",
        "latitude": 42.5857601,
        "longitude": 0.8803745,
        "elevation": 3014.0,
        "ele_buyse_gps": 3014.0,
        "ele_sitar_icc": 3014.1,
        "ele_ign": null,
        "prominence": null,
        "category": "main"
    },
    {
        "id": "-",
        "name": "Agulla Nord de Malvesina",
        "alt": "Aguja Norte de Malavesina",
        "status": "New",
        "zone": "Besiberris",
        "latitude": 42.5929876,
        "longitude": 0.8265495,
        "elevation": 3009.9,
        "ele_buyse_gps": 3010.0,
        "ele_sitar_icc": 3009.9,
        "ele_ign": null,
        "prominence": 14.0,
        "category": null
    },
    {
        "id": "064",
        "name": "Bachimala",
        "alt": "Bachimale, Gran Bachimala, Schrader, Pico Schrader",
        "status": "Original",
        "zone": "Batoua-Batchimale",
        "latitude": 42.6985978,
        "longitude": 0.3944255,
        "elevation": 3177.0,
        "ele_buyse_gps": 3177.0,
        "ele_sitar_icc": 3175.7,
        "ele_ign": 3174.0,
        "prominence": null,
        "category": "main"
    },
    {
        "id": "068",
        "name": "Tuca de Posets",
        "alt": "Punta de Lardana, Llardana, Posets",
        "status": "Original",
        "zone": "Posets-Eriste",
        "latitude": 42.6546292,
        "longitude": 0.4352323,
        "elevation": 3369.0,
        "ele_buyse_gps": 3375.0,
        "ele_sitar_icc": 3368.3,
        "ele_ign": null,
        "prominence": null,
        "category": "main"
    },
    {
        "id": "061",
        "name": "Punta de l'Abella",
        "alt": "Pic de l'Abeille, Pic d'Abeillé",
        "status": "Original",
        "zone": "Batoua-Batchimale",
        "latitude": 42.7132443,
        "longitude": 0.3928154,
        "elevation": 3025.0,
        "ele_buyse_gps": 3029.0,
        "ele_sitar_icc": 3019.7,
        "ele_ign": 3029.0,
        "prominence": null,
        "category": "main"
    },
    {
        "id": "106",
        "name": "Pico Maldito",
        "alt": "Pic Maudit",
        "status": "Original",
        "zone": "Maladeta-Aneto",
        "latitude": 42.639574,
        "longitude": 0.641336,
        "elevation": 3354.0,
        "ele_buyse_gps": 3350.0,
        "ele_sitar_icc": 3354.0,
        "ele_ign": null,
        "prominence": null,
        "category": "main"
    },
    {
        "id": "113",
        "name": "Tuca de Tempestats",
        "alt": "Tuca Gran de Llosàs, Tuca Gran de Llosás, Pic des Tempêtes, Pico de Tempestades",
        "status": "Original",
        "zone": "Maladeta-Aneto",
        "latitude": 42.6261131,
        "longitude": 0.6627674,
        "elevation": 3289.0,
        "ele_buyse_gps": 3290.0,
        "ele_sitar_icc": 3285.6,
        "ele_ign": null,
        "prominence": null,
        "category": "main"
    },
    {
        "id": "114",
        "name": "Tuca d'el Cabo de Barrancs",
        "alt": "Margalida, Margalide, Tuca del Cap de Barrancs",
        "status": "Original",
        "zone": "Maladeta-Aneto",
        "latitude": 42.6244528,
        "longitude": 0.6659243,
        "elevation": 3251.0,
        "ele_buyse_gps": 3241.0,
        "ele_sitar_icc": 3255.4,
        "ele_ign": null,
        "prominence": null,
        "category": "main"
    },
    {
        "id": "075",
        "name": "Tuca de la Forqueta Norte",
        "alt": "Pico de la Forqueta, Forqueta NW, Turets NW, Tourets NW",
        "status": "Original",
        "zone": "Posets-Eriste",
        "latitude": 42.6315714,
        "longitude": 0.4256967,
        "elevation": 3011.0,
        "ele_buyse_gps": 3007.0,
        "ele_sitar_icc": 3011.3,
        "ele_ign": null,
        "prominence": null,
        "category": "main"
    },
    {
        "id": "110",
        "name": "Tuca de Corones",
        "alt": "Pico de Coronas",
        "status": "Original",
        "zone": "Maladeta-Aneto",
        "latitude": 42.6371502,
        "longitude": 0.6493722,
        "elevation": 3297.0,
        "ele_buyse_gps": 3293.0,
        "ele_sitar_icc": 3296.9,
        "ele_ign": null,
        "prominence": null,
        "category": "main"
    },
    {
        "id": "105",
        "name": "Tuca de la Maladeta",
        "alt": "La Maladeta, Maladeta",
        "status": "Original",
        "zone": "Maladeta-Aneto",
        "latitude": 42.6464323,
        "longitude": 0.6402759,
        "elevation": 3312.0,
        "ele_buyse_gps": 3308.0,
        "ele_sitar_icc": 3313.5,
        "ele_ign": null,
        "prominence": null,
        "category": "main"
    },
    {
        "id": "1101",
        "name": "Tuqueta de la Crencha",
        "alt": "Aguja Argarot Sur, Argarot Sur",
        "status": "New",
        "zone": "Maladeta-Aneto",
        "latitude": 42.623724,
        "longitude": 0.6447508,
        "elevation": 3032.0,
        "ele_buyse_gps": 3030.0,
        "ele_sitar_icc": 3032.5,
        "ele_ign": null,
        "prominence": 14.0,
        "category": null
    },
    {
        "id": "115",
        "name": "Tuca d'el Cap de la Vall",
        "alt": "Pico de Russell, Pic Russell",
        "status": "Original",
        "zone": "Maladeta-Aneto",
        "latitude": 42.6185204,
        "longitude": 0.6705522,
        "elevation": 3205.0,
        "ele_buyse_gps": 3207.0,
        "ele_sitar_icc": 3206.4,
        "ele_ign": null,
        "prominence": null,
        "category": "main"
    },
    {
        "id": "107",
        "name": "Tuca d'Aragüells",
        "alt": "Pic Aragüells",
        "status": "Original",
        "zone": "Maladeta-Aneto",
        "latitude": 42.6313761,
        "longitude": 0.6278267,
        "elevation": 3048.0,
        "ele_buyse_gps": 3037.0,
        "ele_sitar_icc": 3033.7,
        "ele_ign": null,
        "prominence": null,
        "category": "main"
    },
    {
        "id": "086",
        "name": "Pic des Spijeoles",
        "alt": "Pico de Espijeoles",
        "status": "Original",
        "zone": "Clarabide-Perdiguero-Boum",
        "latitude": 42.7101212,
        "longitude": 0.4848204,
        "elevation": 3065.0,
        "ele_buyse_gps": 3065.0,
        "ele_sitar_icc": null,
        "ele_ign": 3065.0,
        "prominence": null,
        "category": "main"
    },
    {
        "id": "083",
        "name": "Tuca de Gorgs Bllancs",
        "alt": "Pic des Gourgs Blancs",
        "status": "Original",
        "zone": "Clarabide-Perdiguero-Boum",
        "latitude": 42.700022,
        "longitude": 0.4777227,
        "elevation": 3129.0,
        "ele_buyse_gps": 3129.0,
        "ele_sitar_icc": 3123.7,
        "ele_ign": 3129.0,
        "prominence": null,
        "category": "main"
    },
    {
        "id": "097",
        "name": "Pic du Maupas",
        "alt": "",
        "status": "Original",
        "zone": "Clarabide-Perdiguero-Boum",
        "latitude": 42.7014229,
        "longitude": 0.5455762,
        "elevation": 3109.0,
        "ele_buyse_gps": 3109.0,
        "ele_sitar_icc": 3104.1,
        "ele_ign": 3109.0,
        "prominence": null,
        "category": "main"
    },
    {
        "id": "096",
        "name": "Tuca Ròya de Lliteròla",
        "alt": "Pico Royo",
        "status": "Original",
        "zone": "Clarabide-Perdiguero-Boum",
        "latitude": 42.6976332,
        "longitude": 0.5208907,
        "elevation": 3122.0,
        "ele_buyse_gps": 3121.0,
        "ele_sitar_icc": 3114.3,
        "ele_ign": 3121.0,
        "prominence": null,
        "category": "main"
    },
    {
        "id": "087",
        "name": "Pic Gourdon",
        "alt": "",
        "status": "Original",
        "zone": "Clarabide-Perdiguero-Boum",
        "latitude": 42.7053053,
        "longitude": 0.4830237,
        "elevation": 3034.0,
        "ele_buyse_gps": 3034.0,
        "ele_sitar_icc": null,
        "ele_ign": 3034.0,
        "prominence": null,
        "category": "main"
    },
    {
        "id": "095",
        "name": "Tuca de Lliterola",
        "alt": "Punta de Lliterola, Punta de Literola, Pointe de Literole",
        "status": "Original",
        "zone": "Clarabide-Perdiguero-Boum",
        "latitude": 42.6988654,
        "longitude": 0.5228297,
        "elevation": 3133.0,
        "ele_buyse_gps": 3132.0,
        "ele_sitar_icc": 3125.2,
        "ele_ign": 3132.0,
        "prominence": null,
        "category": "main"
    },
    {
        "id": "079",
        "name": "Tuca de Cllarabida",
        "alt": "Pico de Clarabide, Pic de Clarabide",
        "status": "Original",
        "zone": "Clarabide-Perdiguero-Boum",
        "latitude": 42.6947878,
        "longitude": 0.4674603,
        "elevation": 3019.0,
        "ele_buyse_gps": 3020.0,
        "ele_sitar_icc": 3013.7,
        "ele_ign": 3020.0,
        "prominence": null,
        "category": "main"
    },
    {
        "id": "094",
        "name": "Pic des Crabioules",
        "alt": "Crabioules Oriental, Tuca de Crabioles, Tuca de Crabiòles",
        "status": "Original",
        "zone": "Clarabide-Perdiguero-Boum",
        "latitude": 42.7026989,
        "longitude": 0.52985,
        "elevation": 3107.0,
        "ele_buyse_gps": 3116.0,
        "ele_sitar_icc": 3098.6,
        "ele_ign": 3116.0,
        "prominence": null,
        "category": "main"
    },
    {
        "id": "088",
        "name": "El Sellán de la Vaca",
        "alt": "Seil Dera Baquo, Seil de la Baquo, Eth Selh dera Vaca, Sellant de la Vaca, Sellam de la baca oriental, Cillo de la Vaca, Baque, Seil de la Baque, Pic du Seil de la Baque, Xel de la Vaca, Sellán de la Vaca",
        "status": "Original",
        "zone": "Clarabide-Perdiguero-Boum",
        "latitude": 42.6923874,
        "longitude": 0.496233,
        "elevation": 3108.0,
        "ele_buyse_gps": 3110.0,
        "ele_sitar_icc": 3101.4,
        "ele_ign": 3110.0,
        "prominence": null,
        "category": "main"
    },
    {
        "id": "091",
        "name": "Grand Quayrat",
        "alt": "",
        "status": "Original",
        "zone": "Clarabide-Perdiguero-Boum",
        "latitude": 42.7133834,
        "longitude": 0.5150965,
        "elevation": 3060.0,
        "ele_buyse_gps": 3060.0,
        "ele_sitar_icc": null,
        "ele_ign": 3060.0,
        "prominence": null,
        "category": "main"
    },
    {
        "id": "39",
        "name": "Tuca d'el Cabo de la Vaca O.",
        "alt": "Cap Dera Baquo Occidental, Tuca del Cabo de la Vaca Oeste",
        "status": "Original",
        "zone": "Clarabide-Perdiguero-Boum",
        "latitude": 42.6952671,
        "longitude": 0.4915277,
        "elevation": 3097.0,
        "ele_buyse_gps": 3097.0,
        "ele_sitar_icc": 3091.0,
        "ele_ign": 3097.0,
        "prominence": null,
        "category": "secondary"
    },
    {
        "id": "092",
        "name": "Pic Lézat",
        "alt": "",
        "status": "Original",
        "zone": "Clarabide-Perdiguero-Boum",
        "latitude": 42.7073572,
        "longitude": 0.516697,
        "elevation": 3101.0,
        "ele_buyse_gps": 3107.0,
        "ele_sitar_icc": null,
        "ele_ign": 3017.0,
        "prominence": null,
        "category": "main"
    },
    {
        "id": "72",
        "name": "Tuca de la Brecha de Tempestats",
        "alt": "Punta de la Brecha Tempestades",
        "status": "Original",
        "zone": "Maladeta-Aneto",
        "latitude": 42.6272543,
        "longitude": 0.6615774,
        "elevation": 3272.0,
        "ele_buyse_gps": 3274.0,
        "ele_sitar_icc": null,
        "ele_ign": null,
        "prominence": null,
        "category": "secondary"
    },
    {
        "id": "26",
        "name": "Punta de l'Ibón Gran Norte",
        "alt": "Cresta de Bachimala, Punta del Ibón",
        "status": "Original",
        "zone": "Batoua-Batchimale",
        "latitude": 42.7033866,
        "longitude": 0.3950628,
        "elevation": 3096.0,
        "ele_buyse_gps": 3100.0,
        "ele_sitar_icc": 3093.0,
        "ele_ign": null,
        "prominence": null,
        "category": "secondary"
    },
    {
        "id": "51",
        "name": "Tuca del Pas Alt de Lliterola",
        "alt": "",
        "status": "Original",
        "zone": "Clarabide-Perdiguero-Boum",
        "latitude": 42.695402,
        "longitude": 0.5211923,
        "elevation": 3097.0,
        "ele_buyse_gps": 3095.0,
        "ele_sitar_icc": 3087.2,
        "ele_ign": null,
        "prominence": null,
        "category": "secondary"
    },
    {
        "id": "067",
        "name": "Punta de las Mardaneras",
        "alt": "Tuca d'els Chiminucs S, Pico de los Gemelos, Pico de los Gemelos Ravier, Pic des Jumeaux Ravier",
        "status": "Original",
        "zone": "Posets-Eriste",
        "latitude": 42.6614912,
        "longitude": 0.4351469,
        "elevation": 3167.0,
        "ele_buyse_gps": 3160.0,
        "ele_sitar_icc": 3171.6,
        "ele_ign": null,
        "prominence": null,
        "category": "main"
    },
    {
        "id": "108",
        "name": "Punta de Astorg",
        "alt": "Pointe d’Astorg",
        "status": "Original",
        "zone": "Maladeta-Aneto",
        "latitude": 42.6394682,
        "longitude": 0.6426351,
        "elevation": 3354.0,
        "ele_buyse_gps": 3355.0,
        "ele_sitar_icc": 3355.6,
        "ele_ign": null,
        "prominence": null,
        "category": "main"
    },
    {
        "id": "109",
        "name": "Tuca d'el Mich",
        "alt": "Pico del Medio, Pic du Milieu",
        "status": "Original",
        "zone": "Maladeta-Aneto",
        "latitude": 42.6386072,
        "longitude": 0.6451899,
        "elevation": 3349.0,
        "ele_buyse_gps": 3346.0,
        "ele_sitar_icc": 3350.7,
        "ele_ign": null,
        "prominence": null,
        "category": "main"
    },
    {
        "id": "044",
        "name": "Pico de Rubiñera",
        "alt": "Robiñera, Pico de la Robiñera, Pico Las Louseras",
        "status": "Original",
        "zone": "La Munia",
        "latitude": 42.703989,
        "longitude": 0.1325404,
        "elevation": 3001.0,
        "ele_buyse_gps": 3003.0,
        "ele_sitar_icc": 3000.1,
        "ele_ign": null,
        "prominence": null,
        "category": "main"
    },
    {
        "id": "066",
        "name": "Pico de la Montañeta",
        "alt": "Tuca d'els Chiminucs N, Pic Les Veterans, Pico de Los Veteranos",
        "status": "Original",
        "zone": "Posets-Eriste",
        "latitude": 42.6651595,
        "longitude": 0.4374824,
        "elevation": 3129.0,
        "ele_buyse_gps": 3125.0,
        "ele_sitar_icc": 3130.9,
        "ele_ign": null,
        "prominence": null,
        "category": "main"
    },
    {
        "id": "102",
        "name": "Tuca de Sayó",
        "alt": "Pico Sayó, Segundo Pico Occidental de la Maladeta, Maladeta Occidental 2",
        "status": "Original",
        "zone": "Maladeta-Aneto",
        "latitude": 42.6517457,
        "longitude": 0.6296264,
        "elevation": 3215.0,
        "ele_buyse_gps": 3220.0,
        "ele_sitar_icc": 3219.2,
        "ele_ign": null,
        "prominence": null,
        "category": "main"
    },
    {
        "id": "076",
        "name": "Tuca de Bagüeñola N",
        "alt": "Pico Eriste Norte, Pico Beraldi",
        "status": "Original",
        "zone": "Posets-Eriste",
        "latitude": 42.6266401,
        "longitude": 0.4130425,
        "elevation": 3031.0,
        "ele_buyse_gps": 3025.0,
        "ele_sitar_icc": 3031.8,
        "ele_ign": null,
        "prominence": null,
        "category": "main"
    },
    {
        "id": "58",
        "name": "Punta Delmás",
        "alt": "Pointe Delmás",
        "status": "Original",
        "zone": "Maladeta-Aneto",
        "latitude": 42.6539008,
        "longitude": 0.6284564,
        "elevation": 3163.0,
        "ele_buyse_gps": 3170.0,
        "ele_sitar_icc": 3165.8,
        "ele_ign": null,
        "prominence": null,
        "category": "secondary"
    },
    {
        "id": "074",
        "name": "Tucón Ròyo",
        "alt": "Tucón Royo, Pavots",
        "status": "Original",
        "zone": "Posets-Eriste",
        "latitude": 42.6408124,
        "longitude": 0.4239258,
        "elevation": 3122.0,
        "ele_buyse_gps": 3121.0,
        "ele_sitar_icc": 3123.1,
        "ele_ign": null,
        "prominence": null,
        "category": "main"
    },
    {
        "id": "30",
        "name": "Diente Royo",
        "alt": "",
        "status": "Removed",
        "zone": "Posets-Eriste",
        "latitude": 42.6361506,
        "longitude": 0.4280744,
        "elevation": 2943.0,
        "ele_buyse_gps": 3010.0,
        "ele_sitar_icc": 2991.1,
        "ele_ign": null,
        "prominence": 9.16,
        "category": "secondary"
    },
    {
        "id": "077",
        "name": "Punta Alta d'es Leners",
        "alt": "Tuca de Bagüeñola Gran, Bagüeñola Central, Grand Eriste, Gran Eriste, Gran Pico de Eriste",
        "status": "Original",
        "zone": "Posets-Eriste",
        "latitude": 42.6250668,
        "longitude": 0.4092338,
        "elevation": 3056.0,
        "ele_buyse_gps": 3053.0,
        "ele_sitar_icc": 3055.9,
        "ele_ign": null,
        "prominence": null,
        "category": "main"
    },
    {
        "id": "065",
        "name": "Punta de la Gatera",
        "alt": "Punta del Sable, Pointe du Sabre",
        "status": "Original",
        "zone": "Batoua-Batchimale",
        "latitude": 42.6944365,
        "longitude": 0.3964367,
        "elevation": 3134.0,
        "ele_buyse_gps": 3136.0,
        "ele_sitar_icc": 3139.0,
        "ele_ign": 3136.0,
        "prominence": null,
        "category": "main"
    },
    {
        "id": "103",
        "name": "Tuca d'el Morro de Cregüeña S",
        "alt": "Pic Le Bondidier, Pico de le Bondidier",
        "status": "Original",
        "zone": "Maladeta-Aneto",
        "latitude": 42.6480865,
        "longitude": 0.6274156,
        "elevation": 3153.0,
        "ele_buyse_gps": 3185.0,
        "ele_sitar_icc": 3155.1,
        "ele_ign": null,
        "prominence": null,
        "category": "main"
    },
    {
        "id": "070",
        "name": "Tuca de Bardamina",
        "alt": "Tuca de Posets de Benàs, Tuca de Posets de Benás",
        "status": "Original",
        "zone": "Posets-Eriste",
        "latitude": 42.6624312,
        "longitude": 0.4509654,
        "elevation": 3068.0,
        "ele_buyse_gps": 3079.0,
        "ele_sitar_icc": 3070.6,
        "ele_ign": null,
        "prominence": null,
        "category": "main"
    },
    {
        "id": "073",
        "name": "Tuca de les Espades",
        "alt": "Punta de Lardaneta, Pico Espadas, Punta Llardaneta",
        "status": "Original",
        "zone": "Posets-Eriste",
        "latitude": 42.6498359,
        "longitude": 0.4265655,
        "elevation": 3328.0,
        "ele_buyse_gps": 3332.0,
        "ele_sitar_icc": 3327.0,
        "ele_ign": null,
        "prominence": null,
        "category": "main"
    },
    {
        "id": "25",
        "name": "Punta de l'Ibón Chico",
        "alt": "Pequeño Bachimala",
        "status": "Original",
        "zone": "Batoua-Batchimale",
        "latitude": 42.7097798,
        "longitude": 0.3936125,
        "elevation": 3051.0,
        "ele_buyse_gps": 3061.0,
        "ele_sitar_icc": 3047.1,
        "ele_ign": 3061.0,
        "prominence": null,
        "category": "secondary"
    },
    {
        "id": "60",
        "name": "Tuca d'Abadías/Roca de Cregüeña",
        "alt": "Pico Abadías, Pic Abadías",
        "status": "Original",
        "zone": "Maladeta-Aneto",
        "latitude": 42.6432567,
        "longitude": 0.6384555,
        "elevation": 3272.0,
        "ele_buyse_gps": 3279.0,
        "ele_sitar_icc": 3278.0,
        "ele_ign": null,
        "prominence": null,
        "category": "secondary"
    },
    {
        "id": "071",
        "name": "Dien de Llardana",
        "alt": "Tucón de la Canal Fonda, Tucón de la Canal, Diente de Llardana, Dent de Llardana",
        "status": "Original",
        "zone": "Posets-Eriste",
        "latitude": 42.6462169,
        "longitude": 0.4351016,
        "elevation": 3085.0,
        "ele_buyse_gps": 3085.0,
        "ele_sitar_icc": 3089.5,
        "ele_ign": null,
        "prominence": null,
        "category": "main"
    },
    {
        "id": "27",
        "name": "Tuca de la Collada de la Paúl",
        "alt": "Pico Inferior de la Paúl",
        "status": "Original",
        "zone": "Posets-Eriste",
        "latitude": 42.6586091,
        "longitude": 0.4434197,
        "elevation": 3073.0,
        "ele_buyse_gps": 3073.0,
        "ele_sitar_icc": 3077.8,
        "ele_ign": null,
        "prominence": null,
        "category": "secondary"
    },
    {
        "id": "080",
        "name": "Tuca d'O",
        "alt": "Tuca de Chíes, Pico de Gías",
        "status": "Original",
        "zone": "Clarabide-Perdiguero-Boum",
        "latitude": 42.693425,
        "longitude": 0.4701595,
        "elevation": 3013.0,
        "ele_buyse_gps": 3011.0,
        "ele_sitar_icc": 3008.4,
        "ele_ign": null,
        "prominence": null,
        "category": "main"
    },
    {
        "id": "117",
        "name": "Tuca de Vallibierna",
        "alt": "Roca Bllanca, Pic de Vallibierna, Pico de Vallibierna, Vallhiverna, Vallhibierna",
        "status": "Original",
        "zone": "Maladeta-Aneto",
        "latitude": 42.5940416,
        "longitude": 0.6530895,
        "elevation": 3059.0,
        "ele_buyse_gps": 3067.0,
        "ele_sitar_icc": 3059.5,
        "ele_ign": null,
        "prominence": null,
        "category": "main"
    },
    {
        "id": "33",
        "name": "Tuca d'el Puerto de Puixebres",
        "alt": "Clarabide Oriental, Pico Oriental de Clarabide, Pic Oriental de Clarabide",
        "status": "Original",
        "zone": "Unknown",
        "latitude": 42.6965039,
        "longitude": 0.4686528,
        "elevation": 3017.0,
        "ele_buyse_gps": 3012.0,
        "ele_sitar_icc": 3012.7,
        "ele_ign": 3012.0,
        "prominence": null,
        "category": "secondary"
    },
    {
        "id": "058",
        "name": "Culfreda",
        "alt": "Batoua, Batoua SW, Culfreda SW, Punta Culfreda Sur, Punta Culfreda",
        "status": "Original",
        "zone": "Batoua-Batchimale",
        "latitude": 42.7087042,
        "longitude": 0.336307,
        "elevation": 3034.0,
        "ele_buyse_gps": 3034.0,
        "ele_sitar_icc": 3028.7,
        "ele_ign": 3034.0,
        "prominence": null,
        "category": "main"
    },
    {
        "id": "43",
        "name": "Tuca del Molsero",
        "alt": "Hito E de Perdiguero, Hito Occidental Perdiguero",
        "status": "Removed",
        "zone": "Clarabide-Perdiguero-Boum",
        "latitude": 42.6914274,
        "longitude": 0.5152916,
        "elevation": 3176.0,
        "ele_buyse_gps": 3170.0,
        "ele_sitar_icc": 3163.9,
        "ele_ign": 3170.0,
        "prominence": 7.0,
        "category": "secondary"
    },
    {
        "id": "54",
        "name": "Tuca de Rabadá",
        "alt": "Pico Rabadá",
        "status": "Original",
        "zone": "Clarabide-Perdiguero-Boum",
        "latitude": 42.700052,
        "longitude": 0.5367927,
        "elevation": 3045.0,
        "ele_buyse_gps": 3045.0,
        "ele_sitar_icc": 3029.0,
        "ele_ign": 3045.0,
        "prominence": null,
        "category": "secondary"
    },
    {
        "id": "53",
        "name": "Tusse de Remuñe",
        "alt": "",
        "status": "Original",
        "zone": "Clarabide-Perdiguero-Boum",
        "latitude": 42.6997746,
        "longitude": 0.5356424,
        "elevation": 3041.0,
        "ele_buyse_gps": 3041.0,
        "ele_sitar_icc": 3023.3,
        "ele_ign": 3041.0,
        "prominence": null,
        "category": "secondary"
    },
    {
        "id": "099",
        "name": "Tuca d'Alba",
        "alt": "Pico de Alba",
        "status": "Original",
        "zone": "Maladeta-Aneto",
        "latitude": 42.6556735,
        "longitude": 0.6209677,
        "elevation": 3112.0,
        "ele_buyse_gps": 3118.0,
        "ele_sitar_icc": 3114.1,
        "ele_ign": null,
        "prominence": null,
        "category": "main"
    },
    {
        "id": "42",
        "name": "Fita d'el Perdiguero",
        "alt": "Hito W de Perdiguero, Hito Oriental Perdiguero",
        "status": "Original",
        "zone": "Clarabide-Perdiguero-Boum",
        "latitude": 42.6909214,
        "longitude": 0.5220792,
        "elevation": 3171.0,
        "ele_buyse_gps": 3176.0,
        "ele_sitar_icc": 3169.7,
        "ele_ign": null,
        "prominence": null,
        "category": "secondary"
    },
    {
        "id": "66",
        "name": "Tuqueta de la Crus",
        "alt": "Punta Oliveras-Arenas, Pointe Oliveras-Arenas",
        "status": "Original",
        "zone": "Maladeta-Aneto",
        "latitude": 42.6337629,
        "longitude": 0.6545126,
        "elevation": 3302.0,
        "ele_buyse_gps": 3298.0,
        "ele_sitar_icc": 3305.7,
        "ele_ign": null,
        "prominence": null,
        "category": "secondary"
    },
    {
        "id": "100",
        "name": "Dien d'Alba",
        "alt": "Diente de Alba",
        "status": "Original",
        "zone": "Maladeta-Aneto",
        "latitude": 42.6539813,
        "longitude": 0.6244318,
        "elevation": 3121.0,
        "ele_buyse_gps": 3136.0,
        "ele_sitar_icc": 3126.3,
        "ele_ign": null,
        "prominence": null,
        "category": "main"
    },
    {
        "id": "57",
        "name": "Quixal d'Alba",
        "alt": "Muela de Alba",
        "status": "Original",
        "zone": "Maladeta-Aneto",
        "latitude": 42.6536537,
        "longitude": 0.625245,
        "elevation": 3118.0,
        "ele_buyse_gps": 3118.0,
        "ele_sitar_icc": 3118.2,
        "ele_ign": null,
        "prominence": null,
        "category": "secondary"
    },
    {
        "id": "104",
        "name": "Tuca d'el Cabo de la Tartera",
        "alt": "Pico Cordier, Pic Cordier, Primer Pico Occidental de la Maladeta, Maladeta Occidental 1",
        "status": "Original",
        "zone": "Maladeta-Aneto",
        "latitude": 42.6492081,
        "longitude": 0.6334432,
        "elevation": 3266.0,
        "ele_buyse_gps": 3254.0,
        "ele_sitar_icc": 3270.8,
        "ele_ign": null,
        "prominence": null,
        "category": "main"
    },
    {
        "id": "116",
        "name": "Tuca de Culebres",
        "alt": "",
        "status": "Original",
        "zone": "Maladeta-Aneto",
        "latitude": 42.5939764,
        "longitude": 0.6514085,
        "elevation": 3053.0,
        "ele_buyse_gps": 3062.0,
        "ele_sitar_icc": 3054.0,
        "ele_ign": null,
        "prominence": null,
        "category": "main"
    },
    {
        "id": "111",
        "name": "Aneto",
        "alt": "Tuca d'Aneto, Maladeta de Corones",
        "status": "Original",
        "zone": "Maladeta-Aneto",
        "latitude": 42.6310731,
        "longitude": 0.6566457,
        "elevation": 3404.0,
        "ele_buyse_gps": 3404.0,
        "ele_sitar_icc": 3404.3,
        "ele_ign": null,
        "prominence": null,
        "category": "main"
    },
    {
        "id": "063",
        "name": "Punta de la Cruz",
        "alt": "Pointe Ledormeur, Punta Ledormeur",
        "status": "Original",
        "zone": "Batoua-Batchimale",
        "latitude": 42.6999105,
        "longitude": 0.3952905,
        "elevation": 3107.0,
        "ele_buyse_gps": 3120.0,
        "ele_sitar_icc": 3103.7,
        "ele_ign": null,
        "prominence": null,
        "category": "main"
    },
    {
        "id": "23",
        "name": "Punta Culfreda Norte",
        "alt": "Punta Batoa, Culfreda NE",
        "status": "Original",
        "zone": "Batoua-Batchimale",
        "latitude": 42.7105028,
        "longitude": 0.3395033,
        "elevation": 3033.0,
        "ele_buyse_gps": 3032.0,
        "ele_sitar_icc": 3029.4,
        "ele_ign": null,
        "prominence": null,
        "category": "secondary"
    },
    {
        "id": "24",
        "name": "Punta Culfreda d'el Medio",
        "alt": "Culfreda Central",
        "status": "Original",
        "zone": "Batoua-Batchimale",
        "latitude": 42.7099313,
        "longitude": 0.3380227,
        "elevation": 3031.0,
        "ele_buyse_gps": 3028.0,
        "ele_sitar_icc": 3026.4,
        "ele_ign": null,
        "prominence": null,
        "category": "secondary"
    },
    {
        "id": "31",
        "name": "Tuca de la Forqueta Sur",
        "alt": "Forqueta SE",
        "status": "Original",
        "zone": "Posets-Eriste",
        "latitude": 42.6307304,
        "longitude": 0.4266166,
        "elevation": 3007.0,
        "ele_buyse_gps": 3004.0,
        "ele_sitar_icc": 3007.4,
        "ele_ign": null,
        "prominence": null,
        "category": "secondary"
    },
    {
        "id": "29",
        "name": "Tuca d'el Forau de la Neu",
        "alt": "Tuca Forao de la Neu",
        "status": "Original",
        "zone": "Posets-Eriste",
        "latitude": 42.644025,
        "longitude": 0.4280192,
        "elevation": 3076.0,
        "ele_buyse_gps": 3080.0,
        "ele_sitar_icc": 3075.0,
        "ele_ign": null,
        "prominence": null,
        "category": "secondary"
    },
    {
        "id": "072",
        "name": "Mallo de la Lit / El Tuconet",
        "alt": "Tuca de Llardaneta",
        "status": "Original",
        "zone": "Posets-Eriste",
        "latitude": 42.6525327,
        "longitude": 0.4305682,
        "elevation": 3311.0,
        "ele_buyse_gps": 3311.0,
        "ele_sitar_icc": 3294.9,
        "ele_ign": null,
        "prominence": null,
        "category": "main"
    },
    {
        "id": "28",
        "name": "Tuqueta Roya",
        "alt": "",
        "status": "Original",
        "zone": "Posets-Eriste",
        "latitude": 42.6531,
        "longitude": 0.4327481,
        "elevation": 3266.0,
        "ele_buyse_gps": 3273.0,
        "ele_sitar_icc": 3268.7,
        "ele_ign": null,
        "prominence": null,
        "category": "secondary"
    },
    {
        "id": "069",
        "name": "Tuca de la Paúl",
        "alt": "Pico de la Paúl, Pic de la Paul",
        "status": "Original",
        "zone": "Posets-Eriste",
        "latitude": 42.6605688,
        "longitude": 0.4462766,
        "elevation": 3079.0,
        "ele_buyse_gps": 3078.0,
        "ele_sitar_icc": 3081.1,
        "ele_ign": null,
        "prominence": null,
        "category": "main"
    },
    {
        "id": "48",
        "name": "Punta Lacq",
        "alt": "",
        "status": "Original",
        "zone": "Clarabide-Perdiguero-Boum",
        "latitude": 42.7039186,
        "longitude": 0.5234295,
        "elevation": 3010.0,
        "ele_buyse_gps": 3010.0,
        "ele_sitar_icc": null,
        "ele_ign": null,
        "prominence": null,
        "category": "secondary"
    },
    {
        "id": "47",
        "name": "Aguja Inferior de Lézat",
        "alt": "",
        "status": "Original",
        "zone": "Clarabide-Perdiguero-Boum",
        "latitude": 42.7050096,
        "longitude": 0.5203008,
        "elevation": 3023.0,
        "ele_buyse_gps": 3023.0,
        "ele_sitar_icc": null,
        "ele_ign": null,
        "prominence": null,
        "category": "secondary"
    },
    {
        "id": "46",
        "name": "Aguja Central SE de Lézat",
        "alt": "",
        "status": "Original",
        "zone": "Clarabide-Perdiguero-Boum",
        "latitude": 42.7054724,
        "longitude": 0.5198332,
        "elevation": 3037.0,
        "ele_buyse_gps": 3037.0,
        "ele_sitar_icc": null,
        "ele_ign": null,
        "prominence": null,
        "category": "secondary"
    },
    {
        "id": "45",
        "name": "Aguja Central NW de Lézat",
        "alt": "",
        "status": "Original",
        "zone": "Clarabide-Perdiguero-Boum",
        "latitude": 42.7058207,
        "longitude": 0.5192036,
        "elevation": 3058.0,
        "ele_buyse_gps": 3058.0,
        "ele_sitar_icc": null,
        "ele_ign": null,
        "prominence": null,
        "category": "secondary"
    },
    {
        "id": "44",
        "name": "Aguja Superior de Lézat",
        "alt": "",
        "status": "Original",
        "zone": "Unknown",
        "latitude": 42.7062007,
        "longitude": 0.518787,
        "elevation": 3069.0,
        "ele_buyse_gps": 3069.0,
        "ele_sitar_icc": null,
        "ele_ign": null,
        "prominence": null,
        "category": "secondary"
    },
    {
        "id": "52",
        "name": "Aguja Jean Garnier",
        "alt": "",
        "status": "Original",
        "zone": "Clarabide-Perdiguero-Boum",
        "latitude": 42.701251,
        "longitude": 0.5330515,
        "elevation": 3025.0,
        "ele_buyse_gps": 3025.0,
        "ele_sitar_icc": null,
        "ele_ign": null,
        "prominence": null,
        "category": "secondary"
    },
    {
        "id": "089",
        "name": "Tuca d'el Portillón d'O",
        "alt": "Tuca d'el Portillón d'el Molsero, Pic du Portillon d’Oô",
        "status": "Original",
        "zone": "Clarabide-Perdiguero-Boum",
        "latitude": 42.6927035,
        "longitude": 0.5073666,
        "elevation": 3050.0,
        "ele_buyse_gps": 3050.0,
        "ele_sitar_icc": 3039.8,
        "ele_ign": 3050.0,
        "prominence": null,
        "category": "main"
    },
    {
        "id": "41",
        "name": "Pequeño Pico Portillón",
        "alt": "",
        "status": "Removed",
        "zone": "Clarabide-Perdiguero-Boum",
        "latitude": 42.6928076,
        "longitude": 0.5026976,
        "elevation": 3000.0,
        "ele_buyse_gps": 2998.6,
        "ele_sitar_icc": null,
        "ele_ign": 3000.0,
        "prominence": null,
        "category": "secondary"
    },
    {
        "id": "38",
        "name": "Pico Audoubert",
        "alt": "",
        "status": "Removed",
        "zone": "Clarabide-Perdiguero-Boum",
        "latitude": 42.6962004,
        "longitude": 0.4892999,
        "elevation": 3045.0,
        "ele_buyse_gps": 3045.0,
        "ele_sitar_icc": 3037.8,
        "ele_ign": null,
        "prominence": 8.4,
        "category": "secondary"
    },
    {
        "id": "40",
        "name": "Tuca d'el Sellán de la Vaca",
        "alt": "Cap Dera Baquo Oriental, Pico Sellam de la Baca Oriental",
        "status": "Original",
        "zone": "Clarabide-Perdiguero-Boum",
        "latitude": 42.6931007,
        "longitude": 0.4927623,
        "elevation": 3104.0,
        "ele_buyse_gps": 3103.0,
        "ele_sitar_icc": 3093.3,
        "ele_ign": 3103.0,
        "prominence": null,
        "category": "secondary"
    },
    {
        "id": "37",
        "name": "Pointe Belloc Sud",
        "alt": "",
        "status": "Original",
        "zone": "Clarabide-Perdiguero-Boum",
        "latitude": 42.7126732,
        "longitude": 0.4800128,
        "elevation": 3007.0,
        "ele_buyse_gps": 3007.0,
        "ele_sitar_icc": null,
        "ele_ign": null,
        "prominence": null,
        "category": "secondary"
    },
    {
        "id": "36",
        "name": "Pointe Belloc Central",
        "alt": "",
        "status": "Original",
        "zone": "Clarabide-Perdiguero-Boum",
        "latitude": 42.7131173,
        "longitude": 0.479742,
        "elevation": 3006.0,
        "ele_buyse_gps": 3006.0,
        "ele_sitar_icc": null,
        "ele_ign": null,
        "prominence": null,
        "category": "secondary"
    },
    {
        "id": "085",
        "name": "Pico Belloc",
        "alt": "",
        "status": "Original",
        "zone": "Clarabide-Perdiguero-Boum",
        "latitude": 42.7138699,
        "longitude": 0.4793732,
        "elevation": 3008.0,
        "ele_buyse_gps": 3008.0,
        "ele_sitar_icc": null,
        "ele_ign": 3008.0,
        "prominence": null,
        "category": "main"
    },
    {
        "id": "084",
        "name": "Tuca d'el Puerto d'O",
        "alt": "Pic Jean Arlaud, Tuca d'O",
        "status": "Original",
        "zone": "Clarabide-Perdiguero-Boum",
        "latitude": 42.6996336,
        "longitude": 0.4811743,
        "elevation": 3065.0,
        "ele_buyse_gps": 3065.0,
        "ele_sitar_icc": 3054.3,
        "ele_ign": null,
        "prominence": null,
        "category": "main"
    },
    {
        "id": "35",
        "name": "Torre Armengaud",
        "alt": "",
        "status": "Original",
        "zone": "Clarabide-Perdiguero-Boum",
        "latitude": 42.7000247,
        "longitude": 0.4764121,
        "elevation": 3114.0,
        "ele_buyse_gps": 3114.0,
        "ele_sitar_icc": 3110.4,
        "ele_ign": null,
        "prominence": null,
        "category": "secondary"
    },
    {
        "id": "34",
        "name": "Tuca de Puixebres",
        "alt": "Punta Lourde-Rocheblave, Pointe Lourde-Rocheblave",
        "status": "Original",
        "zone": "Clarabide-Perdiguero-Boum",
        "latitude": 42.7000919,
        "longitude": 0.4740858,
        "elevation": 3104.0,
        "ele_buyse_gps": 3104.0,
        "ele_sitar_icc": 3099.9,
        "ele_ign": null,
        "prominence": null,
        "category": "secondary"
    },
    {
        "id": "082",
        "name": "Pico Camboué",
        "alt": "Pic Camboué",
        "status": "Original",
        "zone": "Clarabide-Perdiguero-Boum",
        "latitude": 42.7023469,
        "longitude": 0.4715431,
        "elevation": 3043.0,
        "ele_buyse_gps": 3043.0,
        "ele_sitar_icc": 3043.2,
        "ele_ign": 3043.0,
        "prominence": null,
        "category": "main"
    },
    {
        "id": "081",
        "name": "Pico Saint-Saud",
        "alt": "Pic Saint Saud",
        "status": "Original",
        "zone": "Clarabide-Perdiguero-Boum",
        "latitude": 42.7022129,
        "longitude": 0.4678845,
        "elevation": 3003.0,
        "ele_buyse_gps": 3003.0,
        "ele_sitar_icc": null,
        "ele_ign": 3003.0,
        "prominence": null,
        "category": "main"
    },
    {
        "id": "80",
        "name": "Cap de la Tartereta",
        "alt": "Punta Russell Oriental",
        "status": "Original",
        "zone": "Maladeta-Aneto",
        "latitude": 42.6165797,
        "longitude": 0.6770269,
        "elevation": 3051.0,
        "ele_buyse_gps": 3034.0,
        "ele_sitar_icc": 3051.5,
        "ele_ign": null,
        "prominence": null,
        "category": "secondary"
    },
    {
        "id": "78",
        "name": "Antecima SE de Russell",
        "alt": "Russell SE",
        "status": "Original",
        "zone": "Maladeta-Aneto",
        "latitude": 42.6174057,
        "longitude": 0.6719174,
        "elevation": 3206.0,
        "ele_buyse_gps": 3205.0,
        "ele_sitar_icc": null,
        "ele_ign": 3206.7,
        "prominence": null,
        "category": "secondary"
    },
    {
        "id": "77",
        "name": "Cap de la Vall",
        "alt": "Punta de la Brecha de Russell",
        "status": "Original",
        "zone": "Maladeta-Aneto",
        "latitude": 42.6216887,
        "longitude": 0.6675911,
        "elevation": 3197.0,
        "ele_buyse_gps": 3192.0,
        "ele_sitar_icc": 3197.7,
        "ele_ign": null,
        "prominence": null,
        "category": "secondary"
    },
    {
        "id": "73",
        "name": "Forca d'Estasen",
        "alt": "Forca Estasen",
        "status": "Original",
        "zone": "Maladeta-Aneto",
        "latitude": 42.62547,
        "longitude": 0.6722557,
        "elevation": 3045.0,
        "ele_buyse_gps": 3028.0,
        "ele_sitar_icc": null,
        "ele_ign": null,
        "prominence": null,
        "category": "secondary"
    },
    {
        "id": "112",
        "name": "Esquena de l'Aneto",
        "alt": "Epaule de l’Aneto, Espalda del Aneto",
        "status": "Original",
        "zone": "Maladeta-Aneto",
        "latitude": 42.6293104,
        "longitude": 0.6596985,
        "elevation": 3345.0,
        "ele_buyse_gps": 3350.0,
        "ele_sitar_icc": 3347.5,
        "ele_ign": null,
        "prominence": null,
        "category": "main"
    },
    {
        "id": "71",
        "name": "Agulla d'Argarot",
        "alt": "Aguja Argarot",
        "status": "Original",
        "zone": "Maladeta-Aneto",
        "latitude": 42.6242901,
        "longitude": 0.6448056,
        "elevation": 3036.0,
        "ele_buyse_gps": 3035.0,
        "ele_sitar_icc": 3036.7,
        "ele_ign": null,
        "prominence": null,
        "category": "secondary"
    },
    {
        "id": "70",
        "name": "Forqueta de Llosás / Agulla de Tchihatcheff",
        "alt": "Aguja Tchihatcheff",
        "status": "Original",
        "zone": "Maladeta-Aneto",
        "latitude": 42.624652,
        "longitude": 0.6448567,
        "elevation": 3052.0,
        "ele_buyse_gps": 3052.0,
        "ele_sitar_icc": 3047.9,
        "ele_ign": null,
        "prominence": null,
        "category": "secondary"
    },
    {
        "id": "69",
        "name": "Agulla de Franqueville",
        "alt": "",
        "status": "Original",
        "zone": "Maladeta-Aneto",
        "latitude": 42.6251144,
        "longitude": 0.6468218,
        "elevation": 3061.0,
        "ele_buyse_gps": 3065.0,
        "ele_sitar_icc": 3066.0,
        "ele_ign": null,
        "prominence": null,
        "category": "secondary"
    },
    {
        "id": "68",
        "name": "Aguja Escudier",
        "alt": "",
        "status": "Removed",
        "zone": "Maladeta-Aneto",
        "latitude": 42.6302501,
        "longitude": 0.6547218,
        "elevation": 3340.0,
        "ele_buyse_gps": 3315.0,
        "ele_sitar_icc": 3341.6,
        "ele_ign": null,
        "prominence": 8.1,
        "category": "secondary"
    },
    {
        "id": "67",
        "name": "Aguja Daviu",
        "alt": "",
        "status": "Original",
        "zone": "Maladeta-Aneto",
        "latitude": 42.6304122,
        "longitude": 0.655618,
        "elevation": 3350.0,
        "ele_buyse_gps": 3350.0,
        "ele_sitar_icc": 3363.6,
        "ele_ign": null,
        "prominence": null,
        "category": "secondary"
    },
    {
        "id": "65",
        "name": "Agulla de la Collada de Corones",
        "alt": "Tuca Collado de Coronas, Tuc del Collado de Coronas",
        "status": "Original",
        "zone": "Maladeta-Aneto",
        "latitude": 42.6359083,
        "longitude": 0.6509936,
        "elevation": 3286.0,
        "ele_buyse_gps": 3286.0,
        "ele_sitar_icc": 3282.1,
        "ele_ign": null,
        "prominence": null,
        "category": "secondary"
    },
    {
        "id": "64",
        "name": "Agulla de Juncadella",
        "alt": "",
        "status": "Original",
        "zone": "Maladeta-Aneto",
        "latitude": 42.6334377,
        "longitude": 0.6322106,
        "elevation": 3022.0,
        "ele_buyse_gps": 3021.0,
        "ele_sitar_icc": 3024.7,
        "ele_ign": null,
        "prominence": null,
        "category": "secondary"
    },
    {
        "id": "63",
        "name": "Agulla de la Roca de Cregüeña",
        "alt": "Aguja Cregüeña",
        "status": "Original",
        "zone": "Maladeta-Aneto",
        "latitude": 42.6346691,
        "longitude": 0.6357372,
        "elevation": 3041.0,
        "ele_buyse_gps": 3043.0,
        "ele_sitar_icc": 3045.4,
        "ele_ign": null,
        "prominence": null,
        "category": "secondary"
    },
    {
        "id": "62",
        "name": "Agulla d'Haurillon",
        "alt": "",
        "status": "Original",
        "zone": "Maladeta-Aneto",
        "latitude": 42.6351901,
        "longitude": 0.6370246,
        "elevation": 3073.0,
        "ele_buyse_gps": 3075.0,
        "ele_sitar_icc": 3069.3,
        "ele_ign": null,
        "prominence": null,
        "category": "secondary"
    },
    {
        "id": "59",
        "name": "Tuca d'el Cuello de la Rimalla",
        "alt": "Pico Collado de la Rimaya",
        "status": "Original",
        "zone": "Maladeta-Aneto",
        "latitude": 42.6477308,
        "longitude": 0.6369312,
        "elevation": 3261.0,
        "ele_buyse_gps": 3265.0,
        "ele_sitar_icc": 3263.0,
        "ele_ign": null,
        "prominence": null,
        "category": "secondary"
    },
    {
        "id": "1081",
        "name": "Tuca d'el Morro de Cregüeña N",
        "alt": "Antecima N. del Pico Le Bondidier, Pico de le Bondidier Norte, Antecime N du Pic Le Bondidier",
        "status": "New",
        "zone": "Maladeta-Aneto",
        "latitude": 42.6487281,
        "longitude": 0.6278389,
        "elevation": 3152.0,
        "ele_buyse_gps": 3149.0,
        "ele_sitar_icc": 3153.9,
        "ele_ign": null,
        "prominence": 12.0,
        "category": null
    },
    {
        "id": "101",
        "name": "Tuca de Mur",
        "alt": "Pico Mir, Tercer Pico Occidental de la Maladeta, Maladeta Occidental 3",
        "status": "Original",
        "zone": "Maladeta-Aneto",
        "latitude": 42.6531147,
        "longitude": 0.628693,
        "elevation": 3187.0,
        "ele_buyse_gps": 3185.0,
        "ele_sitar_icc": 3189.2,
        "ele_ign": null,
        "prominence": null,
        "category": "main"
    },
    {
        "id": "098",
        "name": "Pic de Boum",
        "alt": "Pico de Boum",
        "status": "Original",
        "zone": "Clarabide-Perdiguero-Boum",
        "latitude": 42.6993707,
        "longitude": 0.5575771,
        "elevation": 3006.0,
        "ele_buyse_gps": 3006.0,
        "ele_sitar_icc": 2997.8,
        "ele_ign": 3006.0,
        "prominence": null,
        "category": "main"
    },
    {
        "id": "1102",
        "name": "Agulla de la Brecha de Llosás",
        "alt": "Punta de la Brecha Superior de Llosás",
        "status": "New",
        "zone": "Maladeta-Aneto",
        "latitude": 42.6280484,
        "longitude": 0.6499838,
        "elevation": 3088.0,
        "ele_buyse_gps": 3085.0,
        "ele_sitar_icc": 3082.6,
        "ele_ign": null,
        "prominence": 28.0,
        "category": null
    },
    {
        "id": "39",
        "name": "Tuca d'el Cabo de la Vaca E.",
        "alt": "Cap Dera Baquo Occidental, Tuca del Cabo de la Vaca Este",
        "status": "Original",
        "zone": "Clarabide-Perdiguero-Boum",
        "latitude": 42.6945112,
        "longitude": 0.4920976,
        "elevation": 3097.0,
        "ele_buyse_gps": 3097.0,
        "ele_sitar_icc": 3091.0,
        "ele_ign": 3097.0,
        "prominence": null,
        "category": "secondary"
    },
    {
        "id": "093",
        "name": "Tuca de l'Estraperlo",
        "alt": "Crabioles Occidental, Crabioules Occidental",
        "status": "Original",
        "zone": "Clarabide-Perdiguero-Boum",
        "latitude": 42.7026745,
        "longitude": 0.5266251,
        "elevation": 3102.0,
        "ele_buyse_gps": 3106.0,
        "ele_sitar_icc": 3099.5,
        "ele_ign": null,
        "prominence": null,
        "category": "main"
    },
    {
        "id": "-",
        "name": "Pico de Gías Inferior",
        "alt": "Punta Gías Inferior",
        "status": "New",
        "zone": "Clarabide-Perdiguero-Boum",
        "latitude": 42.6933554,
        "longitude": 0.4711878,
        "elevation": 3000.0,
        "ele_buyse_gps": 3000.59,
        "ele_sitar_icc": null,
        "ele_ign": null,
        "prominence": 13.47,
        "category": null
    },
    {
        "id": "55",
        "name": "Tuca de Navarro",
        "alt": "Pico Navarro",
        "status": "Original",
        "zone": "Clarabide-Perdiguero-Boum",
        "latitude": 42.7002331,
        "longitude": 0.5396271,
        "elevation": 3039.0,
        "ele_buyse_gps": 3043.59,
        "ele_sitar_icc": 3029.7,
        "ele_ign": 3043.0,
        "prominence": null,
        "category": "secondary"
    },
    {
        "id": "32",
        "name": "Pico Occidental de Clarabide",
        "alt": "",
        "status": "Removed",
        "zone": "Clarabide-Perdiguero-Boum",
        "latitude": 42.6944619,
        "longitude": 0.4661541,
        "elevation": 3008.0,
        "ele_buyse_gps": 3007.44,
        "ele_sitar_icc": null,
        "ele_ign": null,
        "prominence": 9.12,
        "category": "secondary"
    },
    {
        "id": "-",
        "name": "Punta de la Lit",
        "alt": "",
        "status": "Unknown",
        "zone": "Maladeta-Aneto",
        "latitude": 42.6518198,
        "longitude": 0.4291557,
        "elevation": 3292.0,
        "ele_buyse_gps": null,
        "ele_sitar_icc": null,
        "ele_ign": null,
        "prominence": null,
        "category": null
    },
    {
        "id": "078",
        "name": "Punta de Peña Solana",
        "alt": "Tuca de Bagüeñola Sur, Pico Eriste Sur",
        "status": "Original",
        "zone": "Posets-Eriste",
        "latitude": 42.6231408,
        "longitude": 0.4090307,
        "elevation": 3041.0,
        "ele_buyse_gps": 3045.0,
        "ele_sitar_icc": 3041.0,
        "ele_ign": null,
        "prominence": null,
        "category": "main"
    },
    {
        "id": "25",
        "name": "Bachimala Chicot S",
        "alt": "Petit Bachimala, Punta del Ibón",
        "status": "Original",
        "zone": "Batoua-Batchimale",
        "latitude": 42.7063983,
        "longitude": 0.3935444,
        "elevation": 3052.0,
        "ele_buyse_gps": 3061.0,
        "ele_sitar_icc": 3047.1,
        "ele_ign": 3061.0,
        "prominence": null,
        "category": "secondary"
    },
    {
        "id": "062",
        "name": "Pico Marcos Feliú",
        "alt": "Petit Bachimala, Punta del Ibón",
        "status": "Original",
        "zone": "Batoua-Batchimale",
        "latitude": 42.7087362,
        "longitude": 0.3932349,
        "elevation": 3038.0,
        "ele_buyse_gps": 3057.0,
        "ele_sitar_icc": 3044.0,
        "ele_ign": null,
        "prominence": null,
        "category": "main"
    },
    {
        "id": "50",
        "name": "Aguja Literola",
        "alt": "Aguja de Lliterola",
        "status": "Removed",
        "zone": "Clarabide-Perdiguero-Boum",
        "latitude": 42.7004867,
        "longitude": 0.526188,
        "elevation": 3035.0,
        "ele_buyse_gps": 3028.0,
        "ele_sitar_icc": null,
        "ele_ign": null,
        "prominence": 6.0,
        "category": "secondary"
    },
    {
        "id": "-",
        "name": "Aguja del Collado de Coronas",
        "alt": "",
        "status": "Original",
        "zone": "Maladeta-Aneto",
        "latitude": 42.6343103,
        "longitude": 0.6525087,
        "elevation": 3228.0,
        "ele_buyse_gps": null,
        "ele_sitar_icc": 3228.3,
        "ele_ign": null,
        "prominence": 13.0,
        "category": null
    },
    {
        "id": "61",
        "name": "Aguja Schmidt-Endell",
        "alt": "",
        "status": "Removed",
        "zone": "Maladeta-Aneto",
        "latitude": 42.6398847,
        "longitude": 0.6409541,
        "elevation": 3335.0,
        "ele_buyse_gps": 3335.0,
        "ele_sitar_icc": null,
        "ele_ign": null,
        "prominence": 5.0,
        "category": "secondary"
    },
    {
        "id": "059",
        "name": "Punta d'el Puerto",
        "alt": "Pico Puerto de la Pez, Pico del Puerto, Pic du Port de la Pez",
        "status": "Original",
        "zone": "Batoua-Batchimale",
        "latitude": 42.7111269,
        "longitude": 0.384987,
        "elevation": 3018.0,
        "ele_buyse_gps": 3018.0,
        "ele_sitar_icc": 3008.5,
        "ele_ign": 3018.0,
        "prominence": null,
        "category": "main"
    },
    {
        "id": "060",
        "name": "Punta de la Pez",
        "alt": "Pic de la Pez",
        "status": "Original",
        "zone": "Batoua-Batchimale",
        "latitude": 42.7106706,
        "longitude": 0.3846791,
        "elevation": 3024.0,
        "ele_buyse_gps": 3024.0,
        "ele_sitar_icc": null,
        "ele_ign": null,
        "prominence": null,
        "category": "main"
    },
    {
        "id": "090",
        "name": "Perdiguero",
        "alt": "Perdiguère",
        "status": "Original",
        "zone": "Clarabide-Perdiguero-Boum",
        "latitude": 42.6920006,
        "longitude": 0.5188647,
        "elevation": 3222.0,
        "ele_buyse_gps": 3222.0,
        "ele_sitar_icc": 3221.0,
        "ele_ign": 3022.0,
        "prominence": null,
        "category": "main"
    },
    {
        "id": "49",
        "name": "Punta Mamy",
        "alt": "",
        "status": "Original",
        "zone": "Unknown",
        "latitude": 42.7030128,
        "longitude": 0.5252877,
        "elevation": 3048.0,
        "ele_buyse_gps": 3048.0,
        "ele_sitar_icc": null,
        "ele_ign": null,
        "prominence": null,
        "category": "secondary"
    },
    {
        "id": "56",
        "name": "Aguja de Alba",
        "alt": "Gendarme de Alba",
        "status": "Original",
        "zone": "Maladeta-Aneto",
        "latitude": 42.6556001,
        "longitude": 0.6186632,
        "elevation": 3054.0,
        "ele_buyse_gps": 3054.0,
        "ele_sitar_icc": null,
        "ele_ign": null,
        "prominence": null,
        "category": "secondary"
    },
    {
        "id": "81",
        "name": "Agulla de la Solaneta",
        "alt": "Agulla SW de Russell, Aguja SW de Russell",
        "status": "Original",
        "zone": "Maladeta-Aneto",
        "latitude": 42.6169465,
        "longitude": 0.6676464,
        "elevation": 3034.0,
        "ele_buyse_gps": 3029.0,
        "ele_sitar_icc": 3034.0,
        "ele_ign": null,
        "prominence": null,
        "category": "secondary"
    },
    {
        "id": "75",
        "name": "Agulla d'Ixalenques",
        "alt": "Primer Ressalt de Salenques, Primer Resalte de Salenques",
        "status": "Original",
        "zone": "Maladeta-Aneto",
        "latitude": 42.6253317,
        "longitude": 0.6685005,
        "elevation": 3132.0,
        "ele_buyse_gps": 3127.0,
        "ele_sitar_icc": null,
        "ele_ign": null,
        "prominence": null,
        "category": "secondary"
    },
    {
        "id": "74",
        "name": "Torre d'Ixalenques",
        "alt": "Gendarme - Torre de Salenques",
        "status": "Original",
        "zone": "Maladeta-Aneto",
        "latitude": 42.6256095,
        "longitude": 0.6705106,
        "elevation": 3111.0,
        "ele_buyse_gps": 3111.0,
        "ele_sitar_icc": null,
        "ele_ign": null,
        "prominence": null,
        "category": "secondary"
    },
    {
        "id": "041",
        "name": "Pic de Troumouse",
        "alt": "",
        "status": "Original",
        "zone": "La Munia",
        "latitude": 42.7224452,
        "longitude": 0.1367431,
        "elevation": 3085.0,
        "ele_buyse_gps": 3085.0,
        "ele_sitar_icc": 3085.5,
        "ele_ign": 3085.0,
        "prominence": null,
        "category": "main"
    },
    {
        "id": "057",
        "name": "Pic de Lustou",
        "alt": "",
        "status": "Original",
        "zone": "Batoua-Batchimale",
        "latitude": 42.7347815,
        "longitude": 0.3600008,
        "elevation": 3023.0,
        "ele_buyse_gps": 3023.0,
        "ele_sitar_icc": null,
        "ele_ign": 3023.0,
        "prominence": null,
        "category": "main"
    },
    {
        "id": "043",
        "name": "Munia",
        "alt": "Pic de la Munia, Almunia Gran",
        "status": "Original",
        "zone": "La Munia",
        "latitude": 42.7148957,
        "longitude": 0.1319236,
        "elevation": 3133.0,
        "ele_buyse_gps": 3133.0,
        "ele_sitar_icc": 3128.7,
        "ele_ign": 3133.0,
        "prominence": null,
        "category": "main"
    },
    {
        "id": "042",
        "name": "Pic de Serre de Mourène",
        "alt": "Punta de las Loseras, Sierra Morena",
        "status": "Original",
        "zone": "La Munia",
        "latitude": 42.7207426,
        "longitude": 0.1353078,
        "elevation": 3090.0,
        "ele_buyse_gps": 3090.0,
        "ele_sitar_icc": 3088.1,
        "ele_ign": 3090.0,
        "prominence": null,
        "category": "main"
    },
    {
        "id": "040",
        "name": "Pic Heid",
        "alt": "",
        "status": "Original",
        "zone": "La Munia",
        "latitude": 42.7286951,
        "longitude": 0.135119,
        "elevation": 3022.0,
        "ele_buyse_gps": 3022.0,
        "ele_sitar_icc": null,
        "ele_ign": 3022.0,
        "prominence": null,
        "category": "main"
    },
    {
        "id": "045",
        "name": "Pic de Néouvielle",
        "alt": "",
        "status": "Original",
        "zone": "Néouvielle-Pic Long",
        "latitude": 42.8353661,
        "longitude": 0.1151204,
        "elevation": 3091.0,
        "ele_buyse_gps": 3091.0,
        "ele_sitar_icc": null,
        "ele_ign": 3091.0,
        "prominence": null,
        "category": "main"
    },
    {
        "id": "055",
        "name": "Pic de Campbieil",
        "alt": "",
        "status": "Original",
        "zone": "Néouvielle-Pic Long",
        "latitude": 42.792033,
        "longitude": 0.1197083,
        "elevation": 3173.0,
        "ele_buyse_gps": 3173.0,
        "ele_sitar_icc": null,
        "ele_ign": 3173.0,
        "prominence": null,
        "category": "main"
    },
    {
        "id": "056",
        "name": "Pic d'Estaragne",
        "alt": "",
        "status": "Original",
        "zone": "Néouvielle-Pic Long",
        "latitude": 42.7971603,
        "longitude": 0.1302987,
        "elevation": 3006.0,
        "ele_buyse_gps": 3006.0,
        "ele_sitar_icc": null,
        "ele_ign": 3006.0,
        "prominence": null,
        "category": "main"
    },
    {
        "id": "046",
        "name": "Pic Ramougn",
        "alt": "",
        "status": "Original",
        "zone": "Néouvielle-Pic Long",
        "latitude": 42.8348178,
        "longitude": 0.1201617,
        "elevation": 3011.0,
        "ele_buyse_gps": 3011.0,
        "ele_sitar_icc": null,
        "ele_ign": 3011.0,
        "prominence": null,
        "category": "main"
    },
    {
        "id": "1049",
        "name": "Pic Lentille",
        "alt": "Campbieil SSW , Campbieil SW, Pic de Lentilla, Pic de la Lentilla",
        "status": "New",
        "zone": "Néouvielle-Pic Long",
        "latitude": 42.7888571,
        "longitude": 0.1171267,
        "elevation": 3157.0,
        "ele_buyse_gps": 3157.0,
        "ele_sitar_icc": null,
        "ele_ign": 3157.0,
        "prominence": 14,
        "category": null
    },
    {
        "id": "-",
        "name": "Pointe Aires",
        "alt": "Punta de Aires",
        "status": "Removed-Original",
        "zone": "La Munia",
        "latitude": 42.7272805,
        "longitude": 0.1352262,
        "elevation": 3028.0,
        "ele_buyse_gps": null,
        "ele_sitar_icc": null,
        "ele_ign": null,
        "prominence": 9.7,
        "category": null
    },
    {
        "id": "18",
        "name": "Pico de l'Almunia Chica",
        "alt": "Pequeña Almunia, Petite Munia",
        "status": "Original",
        "zone": "La Munia",
        "latitude": 42.7160792,
        "longitude": 0.1334718,
        "elevation": 3096.0,
        "ele_buyse_gps": 3096.0,
        "ele_sitar_icc": 3094.2,
        "ele_ign": 3096.0,
        "prominence": null,
        "category": "secondary"
    },
    {
        "id": "033",
        "name": "Grand Astazou",
        "alt": "Astazou Oriental, Astazu Oriental",
        "status": "Original",
        "zone": "Monte Perdido",
        "latitude": 42.7024839,
        "longitude": 0.0236816,
        "elevation": 3071.0,
        "ele_buyse_gps": 3071.0,
        "ele_sitar_icc": 3071.1,
        "ele_ign": 3071.0,
        "prominence": null,
        "category": "main"
    },
    {
        "id": "035",
        "name": "Monte Perdido",
        "alt": "Punta de Treserols",
        "status": "Original",
        "zone": "Monte Perdido",
        "latitude": 42.6755485,
        "longitude": 0.0343568,
        "elevation": 3355.0,
        "ele_buyse_gps": 3355.0,
        "ele_sitar_icc": 3347.9,
        "ele_ign": null,
        "prominence": null,
        "category": "main"
    },
    {
        "id": "034",
        "name": "Cilindro de Marboré",
        "alt": "Mallo de Marmorés",
        "status": "Original",
        "zone": "Monte Perdido",
        "latitude": 42.6847945,
        "longitude": 0.0238657,
        "elevation": 3325.0,
        "ele_buyse_gps": 3328.0,
        "ele_sitar_icc": 3324.7,
        "ele_ign": 3325.0,
        "prominence": null,
        "category": "main"
    },
    {
        "id": "025",
        "name": "Le Casque du Marboré",
        "alt": "",
        "status": "Original",
        "zone": "Monte Perdido",
        "latitude": 42.6877707,
        "longitude": -0.0267577,
        "elevation": 3011.0,
        "ele_buyse_gps": 3006.0,
        "ele_sitar_icc": 3010.9,
        "ele_ign": 3006.0,
        "prominence": null,
        "category": "main"
    },
    {
        "id": "027",
        "name": "Punda dero Espaldador",
        "alt": "Pico del Hombro, Espalda de Marboré, Épaule du Marboré",
        "status": "Original",
        "zone": "Monte Perdido",
        "latitude": 42.6853412,
        "longitude": 0.0002861,
        "elevation": 3073.0,
        "ele_buyse_gps": 3073.0,
        "ele_sitar_icc": 3074.6,
        "ele_ign": 3073.0,
        "prominence": null,
        "category": "main"
    },
    {
        "id": "032",
        "name": "Petit Astazou",
        "alt": "Astazou Occidental, Astazu Occidental",
        "status": "Original",
        "zone": "Monte Perdido",
        "latitude": 42.7018762,
        "longitude": 0.014493,
        "elevation": 3015.0,
        "ele_buyse_gps": 3012.0,
        "ele_sitar_icc": 3013.0,
        "ele_ign": 3012.0,
        "prominence": null,
        "category": "main"
    },
    {
        "id": "039",
        "name": "Punda deras Solas",
        "alt": "Punta de las Olas",
        "status": "Original",
        "zone": "Monte Perdido",
        "latitude": 42.6621893,
        "longitude": 0.0534743,
        "elevation": 3022.0,
        "ele_buyse_gps": 3002.0,
        "ele_sitar_icc": 3021.2,
        "ele_ign": null,
        "prominence": null,
        "category": "main"
    },
    {
        "id": "028",
        "name": "Punda dera Ula",
        "alt": "Pico de la Espalda, Picos de la Cascada Occidental, Pic occidental de la Cascade",
        "status": "Original",
        "zone": "Monte Perdido",
        "latitude": 42.6866993,
        "longitude": 0.0024152,
        "elevation": 3098.0,
        "ele_buyse_gps": 3095.0,
        "ele_sitar_icc": 3098.4,
        "ele_ign": 3095.0,
        "prominence": null,
        "category": "main"
    },
    {
        "id": "036",
        "name": "Pico d'Añisclo",
        "alt": "Soum de Ramond",
        "status": "Original",
        "zone": "Monte Perdido",
        "latitude": 42.6695882,
        "longitude": 0.0431364,
        "elevation": 3257.0,
        "ele_buyse_gps": 3254.0,
        "ele_sitar_icc": 3257.7,
        "ele_ign": null,
        "prominence": null,
        "category": "main"
    },
    {
        "id": "022",
        "name": "Punda dero Cabieto",
        "alt": "Gabieto Sur, Gabietou Occidental, Gabieto Occidental",
        "status": "Original",
        "zone": "Monte Perdido",
        "latitude": 42.6928707,
        "longitude": -0.0652245,
        "elevation": 3035.0,
        "ele_buyse_gps": 3034.0,
        "ele_sitar_icc": 3034.9,
        "ele_ign": null,
        "prominence": null,
        "category": "main"
    },
    {
        "id": "024",
        "name": "Punda Negra",
        "alt": "Tallón, Taillon, Pic du Taillon",
        "status": "Original",
        "zone": "Monte Perdido",
        "latitude": 42.6936421,
        "longitude": -0.0512874,
        "elevation": 3144.0,
        "ele_buyse_gps": 3144.0,
        "ele_sitar_icc": 3144.5,
        "ele_ign": 3144.0,
        "prominence": null,
        "category": "main"
    },
    {
        "id": "031",
        "name": "Pico Plan de Marmorés",
        "alt": "Marboré",
        "status": "Original",
        "zone": "Monte Perdido",
        "latitude": 42.6928281,
        "longitude": 0.0116476,
        "elevation": 3251.0,
        "ele_buyse_gps": 3248.0,
        "ele_sitar_icc": 3251.3,
        "ele_ign": 3248.0,
        "prominence": null,
        "category": "main"
    },
    {
        "id": "026",
        "name": "Tour du Marboré",
        "alt": "",
        "status": "Original",
        "zone": "Monte Perdido",
        "latitude": 42.685787,
        "longitude": -0.0170776,
        "elevation": 3012.0,
        "ele_buyse_gps": 3009.0,
        "ele_sitar_icc": 3011.8,
        "ele_ign": 3009.0,
        "prominence": null,
        "category": "main"
    },
    {
        "id": "023",
        "name": "Cabieto dera Buega",
        "alt": "Gabieto Norte, Gabieto oriental, Gabietou oriental",
        "status": "Original",
        "zone": "Monte Perdido",
        "latitude": 42.6945736,
        "longitude": -0.0620987,
        "elevation": 3031.0,
        "ele_buyse_gps": 3031.0,
        "ele_sitar_icc": 3031.3,
        "ele_ign": null,
        "prominence": null,
        "category": "main"
    },
    {
        "id": "14",
        "name": "Pundeta de Peña Roya",
        "alt": "Pitón SW del Cilindro, Piton SO du Cylindre",
        "status": "Original",
        "zone": "Monte Perdido",
        "latitude": 42.6810391,
        "longitude": 0.020907,
        "elevation": 3194.0,
        "ele_buyse_gps": 3194.0,
        "ele_sitar_icc": 3193.5,
        "ele_ign": null,
        "prominence": null,
        "category": "secondary"
    },
    {
        "id": "16",
        "name": "Peña dero Baste",
        "alt": "Punta Escaleras",
        "status": "Original",
        "zone": "Monte Perdido",
        "latitude": 42.6698029,
        "longitude": 0.029876,
        "elevation": 3027.0,
        "ele_buyse_gps": 3027.0,
        "ele_sitar_icc": 3021.3,
        "ele_ign": null,
        "prominence": null,
        "category": "secondary"
    },
    {
        "id": "17",
        "name": "Repunta de las Neveras",
        "alt": "Espalda de Esparets, Épaule d'Esparets",
        "status": "Removed",
        "zone": "Monte Perdido",
        "latitude": 42.6772465,
        "longitude": 0.0430264,
        "elevation": 3078.0,
        "ele_buyse_gps": 3077.0,
        "ele_sitar_icc": 3078.3,
        "ele_ign": null,
        "prominence": 8.7,
        "category": "secondary"
    },
    {
        "id": "037",
        "name": "Mallo de Tormosa",
        "alt": "Baudrimont NW",
        "status": "Original",
        "zone": "Monte Perdido",
        "latitude": 42.6732435,
        "longitude": 0.046563,
        "elevation": 3045.0,
        "ele_buyse_gps": 3045.0,
        "ele_sitar_icc": 3048.1,
        "ele_ign": null,
        "prominence": null,
        "category": "main"
    },
    {
        "id": "038",
        "name": "Punta de Tormosa",
        "alt": "Baudrimont SE",
        "status": "Original",
        "zone": "Monte Perdido",
        "latitude": 42.6695604,
        "longitude": 0.0520873,
        "elevation": 3026.0,
        "ele_buyse_gps": 3026.0,
        "ele_sitar_icc": 3025.5,
        "ele_ign": null,
        "prominence": null,
        "category": "main"
    },
    {
        "id": "-",
        "name": "Punda dero Sarrato",
        "alt": "Nudillo del Monte Perdido",
        "status": "New",
        "zone": "Monte Perdido",
        "latitude": 42.6799324,
        "longitude": 0.0307426,
        "elevation": 3174.0,
        "ele_buyse_gps": 3176.0,
        "ele_sitar_icc": 3174.5,
        "ele_ign": 3178.0,
        "prominence": 15.2,
        "category": null
    },
    {
        "id": "15",
        "name": "Mallet dero Portiello",
        "alt": "Dedo del Monte Perdido, Doigt du Mont Perdu",
        "status": "Original",
        "zone": "Monte Perdido",
        "latitude": 42.6790915,
        "longitude": 0.0315817,
        "elevation": 3185.0,
        "ele_buyse_gps": 3188.0,
        "ele_sitar_icc": 3185.5,
        "ele_ign": null,
        "prominence": null,
        "category": "secondary"
    },
    {
        "id": "1031",
        "name": "Tozalón dera Nieu",
        "alt": "Tuqueta de Marboré",
        "status": "Original",
        "zone": "Monte Perdido",
        "latitude": 42.6854521,
        "longitude": 0.0188935,
        "elevation": 3093.0,
        "ele_buyse_gps": 3093.0,
        "ele_sitar_icc": 3092.9,
        "ele_ign": null,
        "prominence": 12.0,
        "category": null
    },
    {
        "id": "030",
        "name": "Punda deras Crepas",
        "alt": "Pic oriental de la Cascade, Picos de la Cascada Oriental",
        "status": "Original",
        "zone": "Monte Perdido",
        "latitude": 42.6899584,
        "longitude": 0.0078224,
        "elevation": 3161.0,
        "ele_buyse_gps": 3161.0,
        "ele_sitar_icc": 3161.7,
        "ele_ign": 3161.0,
        "prominence": null,
        "category": "main"
    },
    {
        "id": "029",
        "name": "Picos de la Cascada Central",
        "alt": "Pic Brulle",
        "status": "Original",
        "zone": "Monte Perdido",
        "latitude": 42.6888393,
        "longitude": 0.0051176,
        "elevation": 3111.0,
        "ele_buyse_gps": 3106.0,
        "ele_sitar_icc": 3111.7,
        "ele_ign": 3106.0,
        "prominence": null,
        "category": "main"
    },
    {
        "id": "052",
        "name": "Pic Long",
        "alt": "",
        "status": "Original",
        "zone": "Néouvielle-Pic Long",
        "latitude": 42.8008266,
        "longitude": 0.1001273,
        "elevation": 3192.0,
        "ele_buyse_gps": 3192.0,
        "ele_sitar_icc": null,
        "ele_ign": 3192.0,
        "prominence": null,
        "category": "main"
    },
    {
        "id": "014",
        "name": "Pic de Cerbillona",
        "alt": "Cerbillonar, Pico de la Cerbillonera",
        "status": "Original",
        "zone": "Vignemale",
        "latitude": 42.7691997,
        "longitude": -0.1498045,
        "elevation": 3247.0,
        "ele_buyse_gps": 3247.0,
        "ele_sitar_icc": 3247.5,
        "ele_ign": 3247.0,
        "prominence": null,
        "category": "main"
    },
    {
        "id": "001",
        "name": "Pic du Balaïtous",
        "alt": "Balaitous",
        "status": "Original",
        "zone": "Balaïtous-Enfer-Argualas",
        "latitude": 42.8389387,
        "longitude": -0.290257,
        "elevation": 3146.0,
        "ele_buyse_gps": 3144.0,
        "ele_sitar_icc": 3145.0,
        "ele_ign": 3144.0,
        "prominence": null,
        "category": "main"
    },
    {
        "id": "021",
        "name": "Petit Vignemale",
        "alt": "",
        "status": "Original",
        "zone": "Vignemale",
        "latitude": 42.774699,
        "longitude": -0.135048,
        "elevation": 3032.0,
        "ele_buyse_gps": 3032.0,
        "ele_sitar_icc": null,
        "ele_ign": 3032.0,
        "prominence": null,
        "category": "main"
    },
    {
        "id": "016",
        "name": "Pico de Montferrato",
        "alt": "Pico de Montferrat, Monferrat, Montferrat",
        "status": "Original",
        "zone": "Vignemale",
        "latitude": 42.7666277,
        "longitude": -0.1382876,
        "elevation": 3219.0,
        "ele_buyse_gps": 3219.0,
        "ele_sitar_icc": 3217.9,
        "ele_ign": 3219.0,
        "prominence": null,
        "category": "main"
    },
    {
        "id": "004",
        "name": "Grande Fache",
        "alt": "Gran Facha",
        "status": "Original",
        "zone": "Balaïtous-Enfer-Argualas",
        "latitude": 42.8081942,
        "longitude": -0.237874,
        "elevation": 3005.0,
        "ele_buyse_gps": 3005.0,
        "ele_sitar_icc": 3000.3,
        "ele_ign": 3005.0,
        "prominence": null,
        "category": "main"
    },
    {
        "id": "009",
        "name": "Garmo Negro",
        "alt": "",
        "status": "Original",
        "zone": "Balaïtous-Enfer-Argualas",
        "latitude": 42.7716445,
        "longitude": -0.2641782,
        "elevation": 3064.0,
        "ele_buyse_gps": 3051.0,
        "ele_sitar_icc": 3064.0,
        "ele_ign": null,
        "prominence": null,
        "category": "main"
    },
    {
        "id": "012",
        "name": "Vignemale - Pique longue",
        "alt": "Vignemale, Grand Vignemale, Gran Vignemale, Vinyamala",
        "status": "Original",
        "zone": "Vignemale",
        "latitude": 42.773943,
        "longitude": -0.1473437,
        "elevation": 3298.0,
        "ele_buyse_gps": 3298.0,
        "ele_sitar_icc": 3295.9,
        "ele_ign": 3298.0,
        "prominence": null,
        "category": "main"
    },
    {
        "id": "03",
        "name": "Aguja Cadier",
        "alt": "",
        "status": "Original",
        "zone": "Balaïtous-Enfer-Argualas",
        "latitude": 42.83432,
        "longitude": -0.2898718,
        "elevation": 3022.0,
        "ele_buyse_gps": 3022.0,
        "ele_sitar_icc": 3014.2,
        "ele_ign": 3022.0,
        "prominence": null,
        "category": "secondary"
    },
    {
        "id": "1010",
        "name": "Algas SE",
        "alt": "",
        "status": "New",
        "zone": "Balaïtous-Enfer-Argualas",
        "latitude": 42.7675416,
        "longitude": -0.2698734,
        "elevation": 3025.0,
        "ele_buyse_gps": 3023.0,
        "ele_sitar_icc": 3013.4,
        "ele_ign": 3022.0,
        "prominence": 11.3,
        "category": null
    },
    {
        "id": "07",
        "name": "Algas N",
        "alt": "",
        "status": "Removed",
        "zone": "Balaïtous-Enfer-Argualas",
        "latitude": 42.7695806,
        "longitude": -0.2709506,
        "elevation": 3032.0,
        "ele_buyse_gps": 3032.0,
        "ele_sitar_icc": 3023.5,
        "ele_ign": null,
        "prominence": 7.5,
        "category": "secondary"
    },
    {
        "id": "02",
        "name": "Agulla d'Ussel",
        "alt": "Aiguille d'Ussel ",
        "status": "New",
        "zone": "Balaïtous-Enfer-Argualas",
        "latitude": 42.8376244,
        "longitude": -0.2841643,
        "elevation": 3022.0,
        "ele_buyse_gps": 3022.0,
        "ele_sitar_icc": null,
        "ele_ign": 3022,
        "prominence": null,
        "category": "secondary"
    },
    {
        "id": "06",
        "name": "Aguja de Pondiellos",
        "alt": "Agulla de Pondiellos, Aiguille de Pondiellos",
        "status": "Original",
        "zone": "Balaïtous-Enfer-Argualas",
        "latitude": 42.7718304,
        "longitude": -0.2621429,
        "elevation": 3011.0,
        "ele_buyse_gps": 3011.0,
        "ele_sitar_icc": 3016.4,
        "ele_ign": null,
        "prominence": null,
        "category": "secondary"
    },
    {
        "id": "011",
        "name": "Pico Argualas",
        "alt": "",
        "status": "Original",
        "zone": "Balaïtous-Enfer-Argualas",
        "latitude": 42.7664853,
        "longitude": -0.2668997,
        "elevation": 3044.0,
        "ele_buyse_gps": 3046.0,
        "ele_sitar_icc": 3042.5,
        "ele_ign": null,
        "prominence": null,
        "category": "main"
    },
    {
        "id": "003",
        "name": "Frondella SW",
        "alt": "Frondiella Occidental",
        "status": "Removed",
        "zone": "Balaïtous-Enfer-Argualas",
        "latitude": 42.8285479,
        "longitude": -0.2975106,
        "elevation": 2992.0,
        "ele_buyse_gps": 2999.0,
        "ele_sitar_icc": 2992.2,
        "ele_ign": null,
        "prominence": null,
        "category": "main"
    },
    {
        "id": "05",
        "name": "Frondella",
        "alt": "Frondella central",
        "status": "New",
        "zone": "Balaïtous-Enfer-Argualas",
        "latitude": 42.8321527,
        "longitude": -0.2928759,
        "elevation": 3055.0,
        "ele_buyse_gps": 3055.0,
        "ele_sitar_icc": 3043.5,
        "ele_ign": null,
        "prominence": null,
        "category": "secondary"
    },
    {
        "id": "005",
        "name": "Infierno Occidental",
        "alt": "Enfer Occidental",
        "status": "Original",
        "zone": "Balaïtous-Enfer-Argualas",
        "latitude": 42.7831253,
        "longitude": -0.2632365,
        "elevation": 3075.0,
        "ele_buyse_gps": 3073.0,
        "ele_sitar_icc": 3073.9,
        "ele_ign": null,
        "prominence": null,
        "category": "main"
    },
    {
        "id": "006",
        "name": "Infierno Central",
        "alt": "Enfer Central",
        "status": "Original",
        "zone": "Balaïtous-Enfer-Argualas",
        "latitude": 42.7814949,
        "longitude": -0.2605587,
        "elevation": 3080.0,
        "ele_buyse_gps": 3083.0,
        "ele_sitar_icc": 3082.6,
        "ele_ign": null,
        "prominence": null,
        "category": "main"
    },
    {
        "id": "002",
        "name": "Punda Alta deras Frondiellas",
        "alt": "Frondella, Frondella NW, Frondella Punta Oriental, Frondiella Oriental",
        "status": "Original",
        "zone": "Balaïtous-Enfer-Argualas",
        "latitude": 42.8330662,
        "longitude": -0.2903135,
        "elevation": 3071.0,
        "ele_buyse_gps": 3071.0,
        "ele_sitar_icc": 3060.3,
        "ele_ign": null,
        "prominence": null,
        "category": "main"
    },
    {
        "id": "008",
        "name": "Pico Arnales",
        "alt": "",
        "status": "Original",
        "zone": "Balaïtous-Enfer-Argualas",
        "latitude": 42.7801254,
        "longitude": -0.2560053,
        "elevation": 3001.0,
        "ele_buyse_gps": 3006.0,
        "ele_sitar_icc": 3001.4,
        "ele_ign": null,
        "prominence": null,
        "category": "main"
    },
    {
        "id": "019",
        "name": "Piton Carré",
        "alt": "",
        "status": "Original",
        "zone": "Vignemale",
        "latitude": 42.7734295,
        "longitude": -0.1449871,
        "elevation": 3197.0,
        "ele_buyse_gps": 3197.0,
        "ele_sitar_icc": null,
        "ele_ign": 3197.0,
        "prominence": null,
        "category": "main"
    },
    {
        "id": "020",
        "name": "Pointe Chausenque",
        "alt": "",
        "status": "Original",
        "zone": "Vignemale",
        "latitude": 42.7734628,
        "longitude": -0.1422823,
        "elevation": 3204.0,
        "ele_buyse_gps": 3204.0,
        "ele_sitar_icc": null,
        "ele_ign": 3204.0,
        "prominence": null,
        "category": "main"
    },
    {
        "id": "010",
        "name": "Pico Algas",
        "alt": "",
        "status": "Original",
        "zone": "Balaïtous-Enfer-Argualas",
        "latitude": 42.7683164,
        "longitude": -0.2706457,
        "elevation": 3036.0,
        "ele_buyse_gps": 3036.0,
        "ele_sitar_icc": 3033.8,
        "ele_ign": null,
        "prominence": null,
        "category": "main"
    },
    {
        "id": "053",
        "name": "Pic Badet",
        "alt": "",
        "status": "Original",
        "zone": "Néouvielle-Pic Long",
        "latitude": 42.7977717,
        "longitude": 0.1042392,
        "elevation": 3160.0,
        "ele_buyse_gps": 3160.0,
        "ele_sitar_icc": null,
        "ele_ign": 3160.0,
        "prominence": null,
        "category": "main"
    },
    {
        "id": "054",
        "name": "Pic Maou",
        "alt": "",
        "status": "Original",
        "zone": "Néouvielle-Pic Long",
        "latitude": 42.7941054,
        "longitude": 0.1058456,
        "elevation": 3074.0,
        "ele_buyse_gps": 3074.0,
        "ele_sitar_icc": null,
        "ele_ign": 3074.0,
        "prominence": null,
        "category": "main"
    },
    {
        "id": "047",
        "name": "Pic des Trois Conseillers",
        "alt": "",
        "status": "Original",
        "zone": "Néouvielle-Pic Long",
        "latitude": 42.831159,
        "longitude": 0.1129302,
        "elevation": 3039.0,
        "ele_buyse_gps": 3039.0,
        "ele_sitar_icc": null,
        "ele_ign": 3039.0,
        "prominence": null,
        "category": "main"
    },
    {
        "id": "048",
        "name": "Turon de Néouvielle",
        "alt": "",
        "status": "Original",
        "zone": "Néouvielle-Pic Long",
        "latitude": 42.8277711,
        "longitude": 0.1077501,
        "elevation": 3035.0,
        "ele_buyse_gps": 3035.0,
        "ele_sitar_icc": null,
        "ele_ign": 3035.0,
        "prominence": null,
        "category": "main"
    },
    {
        "id": "007",
        "name": "Infierno Oriental",
        "alt": "Enfer Oriental",
        "status": "Original",
        "zone": "Balaïtous-Enfer-Argualas",
        "latitude": 42.781345,
        "longitude": -0.2590393,
        "elevation": 3076.0,
        "ele_buyse_gps": 3076.0,
        "ele_sitar_icc": 3079.4,
        "ele_ign": null,
        "prominence": null,
        "category": "main"
    },
    {
        "id": "01",
        "name": "O Casterillet",
        "alt": "Torre de Cadier, Tour de Costérillou, Torre Costerillou",
        "status": "New",
        "zone": "Balaïtous-Enfer-Argualas",
        "latitude": 42.8376788,
        "longitude": -0.2859567,
        "elevation": 3049.0,
        "ele_buyse_gps": 3049.0,
        "ele_sitar_icc": null,
        "ele_ign": 3049.0,
        "prominence": null,
        "category": "secondary"
    },
    {
        "id": "049",
        "name": "Pale Crabounouse",
        "alt": "",
        "status": "Original",
        "zone": "Néouvielle-Pic Long",
        "latitude": 42.8031583,
        "longitude": 0.0880206,
        "elevation": 3021.0,
        "ele_buyse_gps": 3021.0,
        "ele_sitar_icc": null,
        "ele_ign": 3021.0,
        "prominence": null,
        "category": "main"
    },
    {
        "id": "050",
        "name": "Bugarret",
        "alt": "",
        "status": "Original",
        "zone": "Néouvielle-Pic Long",
        "latitude": 42.8010064,
        "longitude": 0.0915211,
        "elevation": 3031.0,
        "ele_buyse_gps": 3031.0,
        "ele_sitar_icc": null,
        "ele_ign": 3031.0,
        "prominence": null,
        "category": "main"
    },
    {
        "id": "051",
        "name": "Dent D'Estibère Male",
        "alt": "Dent D'Estibère",
        "status": "Original",
        "zone": "Néouvielle-Pic Long",
        "latitude": 42.800697,
        "longitude": 0.0944013,
        "elevation": 3017.0,
        "ele_buyse_gps": 3017.0,
        "ele_sitar_icc": null,
        "ele_ign": 3017.0,
        "prominence": null,
        "category": "main"
    },
    {
        "id": "013",
        "name": "Pic Clot de la Hount",
        "alt": "",
        "status": "Original",
        "zone": "Vignemale",
        "latitude": 42.7731887,
        "longitude": -0.1497252,
        "elevation": 3289.0,
        "ele_buyse_gps": 3289.0,
        "ele_sitar_icc": 3290.8,
        "ele_ign": 3289.0,
        "prominence": null,
        "category": "main"
    },
    {
        "id": "015",
        "name": "Pic Central",
        "alt": "",
        "status": "Original",
        "zone": "Vignemale",
        "latitude": 42.7683635,
        "longitude": -0.1465632,
        "elevation": 3235.0,
        "ele_buyse_gps": 3235.0,
        "ele_sitar_icc": 3227.1,
        "ele_ign": 3235.0,
        "prominence": null,
        "category": "main"
    },
    {
        "id": "017",
        "name": "Grand Pic de Tapou",
        "alt": "Grand Tapou",
        "status": "Original",
        "zone": "Vignemale",
        "latitude": 42.7627842,
        "longitude": -0.1358368,
        "elevation": 3151.0,
        "ele_buyse_gps": 3150.0,
        "ele_sitar_icc": 3150.6,
        "ele_ign": 3150.0,
        "prominence": null,
        "category": "main"
    },
    {
        "id": "018",
        "name": "Pic du Milieu",
        "alt": "",
        "status": "Original",
        "zone": "Vignemale",
        "latitude": 42.7615778,
        "longitude": -0.1364073,
        "elevation": 3130.0,
        "ele_buyse_gps": 3130.0,
        "ele_sitar_icc": 3127.6,
        "ele_ign": 3130.0,
        "prominence": null,
        "category": "main"
    },
    {
        "id": "20",
        "name": "Aiguille Tourrat",
        "alt": "Agulla Tourrat, Aguja Tourrat",
        "status": "Original",
        "zone": "Néouvielle-Pic Long",
        "latitude": 42.8048196,
        "longitude": 0.1036836,
        "elevation": 3014.0,
        "ele_buyse_gps": 3014.0,
        "ele_sitar_icc": null,
        "ele_ign": null,
        "prominence": null,
        "category": "secondary"
    },
    {
        "id": "21",
        "name": "Pic Maubic",
        "alt": "",
        "status": "Original",
        "zone": "Néouvielle-Pic Long",
        "latitude": 42.8027444,
        "longitude": 0.1029226,
        "elevation": 3058.0,
        "ele_buyse_gps": 3058.0,
        "ele_sitar_icc": null,
        "ele_ign": 3058.0,
        "prominence": null,
        "category": "secondary"
    },
    {
        "id": "-",
        "name": "Garmo de Pondiellos",
        "alt": "Aiguille d'Arnales, Aguja de Arnales",
        "status": "New",
        "zone": "Balaïtous-Enfer-Argualas",
        "latitude": 42.7809139,
        "longitude": -0.2575239,
        "elevation": 3020.0,
        "ele_buyse_gps": 3034.0,
        "ele_sitar_icc": null,
        "ele_ign": null,
        "prominence": 13.0,
        "category": null
    },
    {
        "id": "04",
        "name": "Frondella N",
        "alt": "Frondiella N",
        "status": "New",
        "zone": "Balaïtous-Enfer-Argualas",
        "latitude": 42.8334727,
        "longitude": -0.2901468,
        "elevation": 3062.0,
        "ele_buyse_gps": 3062.0,
        "ele_sitar_icc": null,
        "ele_ign": 3063.0,
        "prominence": null,
        "category": "secondary"
    },
    {
        "id": "12",
        "name": "Tetons dera Labaza",
        "alt": "Punta Inferior del Tapou, Pointe inférieure du Tapou",
        "status": "Original",
        "zone": "Vignemale",
        "latitude": 42.7635186,
        "longitude": -0.1358584,
        "elevation": 3124.0,
        "ele_buyse_gps": 3124.0,
        "ele_sitar_icc": null,
        "ele_ign": null,
        "prominence": null,
        "category": "secondary"
    },
    {
        "id": "11",
        "name": "Punta Superior del Tapou",
        "alt": "",
        "status": "Original",
        "zone": "Vignemale",
        "latitude": 42.7640917,
        "longitude": -0.1365252,
        "elevation": 3132.0,
        "ele_buyse_gps": 3132.0,
        "ele_sitar_icc": null,
        "ele_ign": null,
        "prominence": null,
        "category": "secondary"
    },
    {
        "id": "09",
        "name": "Aguja Inferior Clot de la Hount",
        "alt": "",
        "status": "Original",
        "zone": "Vignemale",
        "latitude": 42.7744781,
        "longitude": -0.1546906,
        "elevation": 3043.0,
        "ele_buyse_gps": 3043.0,
        "ele_sitar_icc": null,
        "ele_ign": null,
        "prominence": null,
        "category": "secondary"
    },
    {
        "id": "08",
        "name": "Aiguille supérieure du Clot de la Hount",
        "alt": "",
        "status": "Original",
        "zone": "Unknown",
        "latitude": 42.7738812,
        "longitude": -0.1532758,
        "elevation": 3119.0,
        "ele_buyse_gps": 3115.0,
        "ele_sitar_icc": null,
        "ele_ign": null,
        "prominence": null,
        "category": "secondary"
    },
    {
        "id": "10",
        "name": "Garmo deros Musarez",
        "alt": "Aguja SW de Cerbillona",
        "status": "Original",
        "zone": "Vignemale",
        "latitude": 42.7676018,
        "longitude": -0.1524952,
        "elevation": 3051.0,
        "ele_buyse_gps": 3051.0,
        "ele_sitar_icc": 3047.6,
        "ele_ign": 3051.0,
        "prominence": null,
        "category": "secondary"
    },
    {
        "id": "13",
        "name": "Espalda Chausenque",
        "alt": "Épaule Chausenque, Espatlla Chausenque",
        "status": "Original",
        "zone": "Vignemale",
        "latitude": 42.7732923,
        "longitude": -0.1400177,
        "elevation": 3154.0,
        "ele_buyse_gps": 3154.0,
        "ele_sitar_icc": null,
        "ele_ign": null,
        "prominence": null,
        "category": "secondary"
    },
    {
        "id": "1045",
        "name": "Crabounouse N.",
        "alt": "Crabounouse",
        "status": "New",
        "zone": "Néouvielle-Pic Long",
        "latitude": 42.8044299,
        "longitude": 0.089618,
        "elevation": 3016.0,
        "ele_buyse_gps": 3016.0,
        "ele_sitar_icc": null,
        "ele_ign": 3016.0,
        "prominence": 11,
        "category": null
    },
    {
        "id": "22",
        "name": "Aguja Badet",
        "alt": "",
        "status": "Original",
        "zone": "Néouvielle-Pic Long",
        "latitude": 42.7988645,
        "longitude": 0.102117,
        "elevation": 3135.0,
        "ele_buyse_gps": 3135.0,
        "ele_sitar_icc": null,
        "ele_ign": null,
        "prominence": null,
        "category": "secondary"
    },
    {
        "id": "-",
        "name": "Premier Conseiller",
        "alt": "",
        "status": "New",
        "zone": "Néouvielle-Pic Long",
        "latitude": 42.8299126,
        "longitude": 0.1099062,
        "elevation": 3035.0,
        "ele_buyse_gps": 3035.0,
        "ele_sitar_icc": null,
        "ele_ign": null,
        "prominence": 14,
        "category": null
    }
]
