[
    {
        "name": "Pica d'Estats",
        "alt": "Pic d'Estats",
        "status": "Original",
        "zone": "Estats-Montcalm",
        "latitude": 42.666952,
        "longitude": 1.3978986,
        "elevation": 3143.45
    },
    {
        "name": "Pic Rodó de Canalbona",
        "alt": "",
        "status": "Original",
        "zone": "Unknown",
        "latitude": 42.6625832,
        "longitude": 1.4016988,
        "elevation": 3004.3
    },
    {
        "name": "Pic de Sotllo",
        "alt": "Pic du Port de Sullo",
        "status": "Original",
        "zone": "Estats-Montcalm",
        "latitude": 42.6687125,
        "longitude": 1.3874561,
        "elevation": 3072.0
    },
    {
        "name": "Pic du Montcalm",
        "alt": "Pic de Montcalm",
        "status": "Original",
        "zone": "Estats-Montcalm",
        "latitude": 42.6719036,
        "longitude": 1.4063347,
        "elevation": 3077.0
    },
    {
        "name": "Pic Verdaguer",
        "alt": "",
        "status": "Original",
        "zone": "Estats-Montcalm",
        "latitude": 42.6680493,
        "longitude": 1.396855,
        "elevation": 3129.4
    },
    {
        "name": "Punta de Gabarró",
        "alt": "Punta Gabarró",
        "status": "Original",
        "zone": "Estats-Montcalm",
        "latitude": 42.6654679,
        "longitude": 1.3998781,
        "elevation": 3114.6
    },
    {
        "name": "Cap de la Coma de Riufred",
        "alt": "",
        "status": "Original",
        "zone": "Unknown",
        "latitude": 42.6687455,
        "longitude": 1.4015231,
        "elevation": 3041.0
    },
    {
        "name": "Sotllo N",
        "alt": "",
        "status": "New-Tocandoelcielo",
        "zone": "Estats-Montcalm",
        "latitude": 42.6697873,
        "longitude": 1.3875262,
        "elevation": 3058.2
    },
    {
        "name": "Pic de Comaloforno",
        "alt": "",
        "status": "Original",
        "zone": "Besiberris",
        "latitude": 42.5913788,
        "longitude": 0.827831,
        "elevation": 3029.2
    },
    {
        "name": "Tuca de Mulleres",
        "alt": "Cap de Mulleres, Tuc de Molières",
        "status": "Original",
        "zone": "Maladeta-Aneto",
        "latitude": 42.6294706,
        "longitude": 0.6985652,
        "elevation": 3010.1
    },
    {
        "name": "Besiberri Sud",
        "alt": "",
        "status": "Original",
        "zone": "Besiberris",
        "latitude": 42.5938062,
        "longitude": 0.8259905,
        "elevation": 3023.4
    },
    {
        "name": "Besiberri del Mig S",
        "alt": "Pic Jolís",
        "status": "Removed",
        "zone": "Besiberris",
        "latitude": 42.5998934,
        "longitude": 0.8249398,
        "elevation": 2995.2
    },
    {
        "name": "Besiberri del Mig N",
        "alt": "Pic Simó",
        "status": "Removed",
        "zone": "Besiberris",
        "latitude": 42.5998934,
        "longitude": 0.8249398,
        "elevation": 2995.2
    },
    {
        "name": "Besiberri Nord",
        "alt": "",
        "status": "Original",
        "zone": "Besiberris",
        "latitude": 42.605262,
        "longitude": 0.8263044,
        "elevation": 3008.3
    },
    {
        "name": "Punta de Passet",
        "alt": "Celestin Passet",
        "status": "Removed",
        "zone": "Besiberris",
        "latitude": 42.589379,
        "longitude": 0.8271458,
        "elevation": 2997.6
    },
    {
        "name": "Punta Alta de Comalesbienes",
        "alt": "Punta Alta",
        "status": "Original",
        "zone": "Besiberris",
        "latitude": 42.5857601,
        "longitude": 0.8803745,
        "elevation": 3014.0
    },
    {
        "name": "Agulla Nord de Malvesina",
        "alt": "",
        "status": "New-Tocandoelcielo",
        "zone": "Besiberris",
        "latitude": 42.5929876,
        "longitude": 0.8265495,
        "elevation": 3009.9
    },
    {
        "name": "Bachimala",
        "alt": "Bachimale, Gran Bachimala, Schrader, Pico Schrader",
        "status": "Original",
        "zone": "Batoua-Batchimale",
        "latitude": 42.6985978,
        "longitude": 0.3944255,
        "elevation": 3177.0
    },
    {
        "name": "Tuca de Posets",
        "alt": "Punta de Lardana, Llardana, Posets",
        "status": "Original",
        "zone": "Posets-Eriste",
        "latitude": 42.6546292,
        "longitude": 0.4352323,
        "elevation": 3369.0
    },
    {
        "name": "Punta de l'Abella",
        "alt": "Pic de l'Abeille, Pic d'Abeillé",
        "status": "Original",
        "zone": "Batoua-Batchimale",
        "latitude": 42.7132443,
        "longitude": 0.3928154,
        "elevation": 3025.0
    },
    {
        "name": "Pico Maldito",
        "alt": "Pic Maudit",
        "status": "Original",
        "zone": "Maladeta-Aneto",
        "latitude": 42.639574,
        "longitude": 0.641336,
        "elevation": 3354.0
    },
    {
        "name": "Tuca de Tempestats",
        "alt": "Tuca Gran de Llosàs, Tuca Gran de Llosás, Pic des Tempêtes",
        "status": "Original",
        "zone": "Maladeta-Aneto",
        "latitude": 42.6261131,
        "longitude": 0.6627674,
        "elevation": 3289.0
    },
    {
        "name": "Tuca d'el Cabo de Barrancs",
        "alt": "Margalida, Tuca del Cap de Barrancs",
        "status": "Original",
        "zone": "Maladeta-Aneto",
        "latitude": 42.6244528,
        "longitude": 0.6659243,
        "elevation": 3251.0
    },
    {
        "name": "Tuca de la Forqueta Norte",
        "alt": "Pico de la Forqueta, Forqueta NW, Turets NW (UIAA)",
        "status": "Original",
        "zone": "Posets-Eriste",
        "latitude": 42.6315714,
        "longitude": 0.4256967,
        "elevation": 3011.0
    },
    {
        "name": "Tuca de Corones",
        "alt": "Pico de Coronas",
        "status": "Original",
        "zone": "Maladeta-Aneto",
        "latitude": 42.6371502,
        "longitude": 0.6493722,
        "elevation": 3297.0
    },
    {
        "name": "Tuca de la Maladeta",
        "alt": "La Maladeta, Maladeta",
        "status": "Original",
        "zone": "Maladeta-Aneto",
        "latitude": 42.6464323,
        "longitude": 0.6402759,
        "elevation": 3312.0
    },
    {
        "name": "Tuqueta de la Crencha",
        "alt": "",
        "status": "Original",
        "zone": "Unknown",
        "latitude": 42.623724,
        "longitude": 0.6447508,
        "elevation": 3032.0
    },
    {
        "name": "Tuca d'el Cap de la Vall",
        "alt": "Pico de Russell, Pic Russell",
        "status": "Original",
        "zone": "Maladeta-Aneto",
        "latitude": 42.6185204,
        "longitude": 0.6705522,
        "elevation": 3205.0
    },
    {
        "name": "Tuca d'Aragüells",
        "alt": "Pic Aragüells",
        "status": "Original",
        "zone": "Maladeta-Aneto",
        "latitude": 42.6313761,
        "longitude": 0.6278267,
        "elevation": 3048.0
    },
    {
        "name": "Pic des Spijeoles",
        "alt": "Pico de Espijeoles",
        "status": "Original",
        "zone": "Clarabide-Perdiguero-Boum",
        "latitude": 42.7101212,
        "longitude": 0.4848204,
        "elevation": 3065.0
    },
    {
        "name": "Posets",
        "alt": "",
        "status": "Original",
        "zone": "Unknown",
        "latitude": 42.6546286,
        "longitude": 0.4352219,
        "elevation": 3368.6
    },
    {
        "name": "Tuca de Gorgs Bllancs",
        "alt": "Pic des Gourgs Blancs",
        "status": "Original",
        "zone": "Clarabide-Perdiguero-Boum",
        "latitude": 42.700022,
        "longitude": 0.4777227,
        "elevation": 3129.0
    },
    {
        "name": "Pic du Maupas",
        "alt": "",
        "status": "Original",
        "zone": "Clarabide-Perdiguero-Boum",
        "latitude": 42.7014229,
        "longitude": 0.5455762,
        "elevation": 3109.0
    },
    {
        "name": "Tuca Ròya de Lliteròla",
        "alt": "Pico Royo",
        "status": "Original",
        "zone": "Clarabide-Perdiguero-Boum",
        "latitude": 42.6976332,
        "longitude": 0.5208907,
        "elevation": 3122.0
    },
    {
        "name": "Pic Gourdon",
        "alt": "",
        "status": "Original",
        "zone": "Clarabide-Perdiguero-Boum",
        "latitude": 42.7053053,
        "longitude": 0.4830237,
        "elevation": 3034.0
    },
    {
        "name": "Tuca de Lliterola",
        "alt": "",
        "status": "Original",
        "zone": "Clarabide-Perdiguero-Boum",
        "latitude": 42.6988654,
        "longitude": 0.5228297,
        "elevation": 3133.0
    },
    {
        "name": "Tuca de Cllarabida",
        "alt": "Pico de Clarabide, Pic de Clarabide",
        "status": "Original",
        "zone": "Clarabide-Perdiguero-Boum",
        "latitude": 42.6947878,
        "longitude": 0.4674603,
        "elevation": 3019.0
    },
    {
        "name": "Pic des Crabioules",
        "alt": "Crabioules Oriental, Tuca de Crabioles, Tuca de Crabiòles",
        "status": "Original",
        "zone": "Clarabide-Perdiguero-Boum",
        "latitude": 42.7026989,
        "longitude": 0.52985,
        "elevation": 3107.0
    },
    {
        "name": "El Sellán de la Vaca",
        "alt": "Seil Dera Baquo, Seil de la Baquo, Eth Selh dera Vaca, Sellant de la Vaca, Sellam de la baca oriental, Cillo de la Vaca, Baque, Seil de la Baque, Xel de la Vaca, Sellán de la Vaca",
        "status": "Original",
        "zone": "Clarabide-Perdiguero-Boum",
        "latitude": 42.6923874,
        "longitude": 0.496233,
        "elevation": 3108.0
    },
    {
        "name": "Grand Quayrat",
        "alt": "",
        "status": "Original",
        "zone": "Clarabide-Perdiguero-Boum",
        "latitude": 42.7133834,
        "longitude": 0.5150965,
        "elevation": 3060.0
    },
    {
        "name": "Tuca d'el Cabo de la Vaca O.",
        "alt": "",
        "status": "Original",
        "zone": "Unknown",
        "latitude": 42.6952671,
        "longitude": 0.4915277,
        "elevation": 3097.0
    },
    {
        "name": "Pic Lézat",
        "alt": "",
        "status": "Original",
        "zone": "Clarabide-Perdiguero-Boum",
        "latitude": 42.7073572,
        "longitude": 0.516697,
        "elevation": 3101.0
    },
    {
        "name": "Tuca de la Brecha de Tempestats",
        "alt": "",
        "status": "Original",
        "zone": "Unknown",
        "latitude": 42.6272543,
        "longitude": 0.6615774,
        "elevation": 3272.0
    },
    {
        "name": "Punta de l'Ibón Gran Norte",
        "alt": "Cresta de Bachimala, Punta del Ibón",
        "status": "Original-Tocandoelcielo",
        "zone": "Batoua-Batchimale",
        "latitude": 42.7033866,
        "longitude": 0.3950628,
        "elevation": 3096.0
    },
    {
        "name": "Tuca del Pas Alt de Lliterola",
        "alt": "",
        "status": "Original",
        "zone": "Unknown",
        "latitude": 42.695402,
        "longitude": 0.5211923,
        "elevation": 3097.0
    },
    {
        "name": "Punta de las Mardaneras",
        "alt": "Tuca d'els Chiminucs S, Pico de los Gemelos, Pico de los Gemelos Ravier, Pic des Jumeaux Ravier",
        "status": "Original",
        "zone": "Posets-Eriste",
        "latitude": 42.6614912,
        "longitude": 0.4351469,
        "elevation": 3167.0
    },
    {
        "name": "Punta de Astorg",
        "alt": "Pointe d'Astorg",
        "status": "Original",
        "zone": "Maladeta-Aneto",
        "latitude": 42.6394682,
        "longitude": 0.6426351,
        "elevation": 3354.0
    },
    {
        "name": "Tuca d'el Mich",
        "alt": "Pico del Medio, Pic du Milieu",
        "status": "Original",
        "zone": "Maladeta-Aneto",
        "latitude": 42.6386072,
        "longitude": 0.6451899,
        "elevation": 3349.0
    },
    {
        "name": "Pico de Rubiñera",
        "alt": "Robiñera, Pico de la Robiñera, Pico Las Louseras",
        "status": "Original",
        "zone": "Unknown",
        "latitude": 42.703989,
        "longitude": 0.1325404,
        "elevation": 3001.0
    },
    {
        "name": "Pico de la Montañeta",
        "alt": "Tuca d'els Chiminucs N, Pic Les Veterans, Pico de Los Veteranos",
        "status": "Original",
        "zone": "Posets-Eriste",
        "latitude": 42.6651595,
        "longitude": 0.4374824,
        "elevation": 3129.0
    },
    {
        "name": "Tuca de Sayó",
        "alt": "Pico Sayó, Segundo Pico Occidental de la Maladeta, Maladeta Occidental 2",
        "status": "Original",
        "zone": "Maladeta-Aneto",
        "latitude": 42.6517457,
        "longitude": 0.6296264,
        "elevation": 3215.0
    },
    {
        "name": "Tuca de Bagüeñola N",
        "alt": "Pico Eriste Norte, Pico Beraldi",
        "status": "Original",
        "zone": "Posets-Eriste",
        "latitude": 42.6266401,
        "longitude": 0.4130425,
        "elevation": 3031.0
    },
    {
        "name": "Punta Delmás",
        "alt": "",
        "status": "Original",
        "zone": "Unknown",
        "latitude": 42.6539008,
        "longitude": 0.6284564,
        "elevation": 3163.0
    },
    {
        "name": "Tucón Ròyo",
        "alt": "Tucón Royo, Pavots",
        "status": "Original",
        "zone": "Posets-Eriste",
        "latitude": 42.6408124,
        "longitude": 0.4239258,
        "elevation": 3122.0
    },
    {
        "name": "Diente Royo",
        "alt": "",
        "status": "Removed",
        "zone": "Posets-Eriste",
        "latitude": 42.6361506,
        "longitude": 0.4280744,
        "elevation": 2943.0
    },
    {
        "name": "Bachimala Chicot N",
        "alt": "",
        "status": "Original",
        "zone": "Unknown",
        "latitude": 42.7075447,
        "longitude": 0.3933877,
        "elevation": 3048.0
    },
    {
        "name": "Punta Alta d'es Leners",
        "alt": "Tuca de Bagüeñola Gran, Bagüeñola Central, Grand Eriste, Gran Eriste",
        "status": "Original",
        "zone": "Posets-Eriste",
        "latitude": 42.6250668,
        "longitude": 0.4092338,
        "elevation": 3056.0
    },
    {
        "name": "Punta de la Gatera",
        "alt": "Punta del Sable, Pointe du Sabre",
        "status": "Original",
        "zone": "Batoua-Batchimale",
        "latitude": 42.6944365,
        "longitude": 0.3964367,
        "elevation": 3134.0
    },
    {
        "name": "Tuca d'el Morro de Cregüeña S",
        "alt": "Pic Le Bondidier, Pico de le Bondidier",
        "status": "Original",
        "zone": "Maladeta-Aneto",
        "latitude": 42.6480865,
        "longitude": 0.6274156,
        "elevation": 3153.0
    },
    {
        "name": "Tuca de Bardamina",
        "alt": "Tuca de Posets de Benàs, Tuca de Posets de Benás",
        "status": "Original",
        "zone": "Posets-Eriste",
        "latitude": 42.6624312,
        "longitude": 0.4509654,
        "elevation": 3068.0
    },
    {
        "name": "Tuca de les Espades",
        "alt": "Punta de Lardaneta, Pico Espadas, Punta Llardaneta",
        "status": "Original",
        "zone": "Posets-Eriste",
        "latitude": 42.6498359,
        "longitude": 0.4265655,
        "elevation": 3328.0
    },
    {
        "name": "Punta de l'Ibón Chico",
        "alt": "Pequeño Bachimala",
        "status": "Original-Tocandoelcielo",
        "zone": "Batoua-Batchimale",
        "latitude": 42.7097798,
        "longitude": 0.3936125,
        "elevation": 3051.0
    },
    {
        "name": "Tuca d'Abadías/Roca de Cregüeña",
        "alt": "",
        "status": "Original",
        "zone": "Unknown",
        "latitude": 42.6432567,
        "longitude": 0.6384555,
        "elevation": 3272.0
    },
    {
        "name": "Dien de Llardana",
        "alt": "Tucón de la Canal Fonda, Tucón de la Canal, Diente de Llardana, Dent de Llardana",
        "status": "Original",
        "zone": "Posets-Eriste",
        "latitude": 42.6462169,
        "longitude": 0.4351016,
        "elevation": 3085.0
    },
    {
        "name": "Tuca de la Collada de la Paúl",
        "alt": "Pico Inferior de la Paúl",
        "status": "Original-Tocandoelcielo",
        "zone": "Posets-Eriste",
        "latitude": 42.6586091,
        "longitude": 0.4434197,
        "elevation": 3073.0
    },
    {
        "name": "Tuca d'O",
        "alt": "Tuca de Chíes, Pico de Gías",
        "status": "Original",
        "zone": "Clarabide-Perdiguero-Boum",
        "latitude": 42.693425,
        "longitude": 0.4701595,
        "elevation": 3013.0
    },
    {
        "name": "Tuca de Vallibierna",
        "alt": "Roca Bllanca, Pic de Vallibierna, Pico de Vallibierna",
        "status": "Original",
        "zone": "Maladeta-Aneto",
        "latitude": 42.5940416,
        "longitude": 0.6530895,
        "elevation": 3059.0
    },
    {
        "name": "Tuca d'el Puerto de Puixebres",
        "alt": "",
        "status": "Original",
        "zone": "Unknown",
        "latitude": 42.6965039,
        "longitude": 0.4686528,
        "elevation": 3017.0
    },
    {
        "name": "Culfreda",
        "alt": "Batoua, Batoua SW, Culfreda SW, Punta Culfreda Sur, Punta Culfreda",
        "status": "Original",
        "zone": "Batoua-Batchimale",
        "latitude": 42.7087042,
        "longitude": 0.336307,
        "elevation": 3034.0
    },
    {
        "name": "Tuca del Molsero",
        "alt": "",
        "status": "Original",
        "zone": "Unknown",
        "latitude": 42.6914274,
        "longitude": 0.5152916,
        "elevation": 3176.0
    },
    {
        "name": "Tuca de Rabadá",
        "alt": "",
        "status": "Original",
        "zone": "Unknown",
        "latitude": 42.700052,
        "longitude": 0.5367927,
        "elevation": 3045.0
    },
    {
        "name": "Tusse de Remuñe",
        "alt": "",
        "status": "Original",
        "zone": "Unknown",
        "latitude": 42.6997746,
        "longitude": 0.5356424,
        "elevation": 3041.0
    },
    {
        "name": "Tuca d'Alba",
        "alt": "Pico de Alba",
        "status": "Original",
        "zone": "Maladeta-Aneto",
        "latitude": 42.6556735,
        "longitude": 0.6209677,
        "elevation": 3112.0
    },
    {
        "name": "Fita d'el Perdiguero",
        "alt": "",
        "status": "Original",
        "zone": "Unknown",
        "latitude": 42.6909214,
        "longitude": 0.5220792,
        "elevation": 3171.0
    },
    {
        "name": "Tuqueta de la Crus",
        "alt": "",
        "status": "Original",
        "zone": "Unknown",
        "latitude": 42.6337629,
        "longitude": 0.6545126,
        "elevation": 3302.0
    },
    {
        "name": "Dien d'Alba",
        "alt": "Diente de Alba",
        "status": "Original",
        "zone": "Maladeta-Aneto",
        "latitude": 42.6539813,
        "longitude": 0.6244318,
        "elevation": 3121.0
    },
    {
        "name": "Quixal d'Alba",
        "alt": "",
        "status": "Original",
        "zone": "Unknown",
        "latitude": 42.6536537,
        "longitude": 0.625245,
        "elevation": 3118.0
    },
    {
        "name": "Tuca d'el Cabo de la Tartera",
        "alt": "Pico Cordier, Pic Cordier, Primer Pico Occidental de la Maladeta, Maladeta Occidental 1",
        "status": "Original",
        "zone": "Maladeta-Aneto",
        "latitude": 42.6492081,
        "longitude": 0.6334432,
        "elevation": 3266.0
    },
    {
        "name": "Tuca de Culebres",
        "alt": "",
        "status": "Original",
        "zone": "Maladeta-Aneto",
        "latitude": 42.5939764,
        "longitude": 0.6514085,
        "elevation": 3053.0
    },
    {
        "name": "Aneto",
        "alt": "Tuca d'Aneto, Maladeta de Corones",
        "status": "Original",
        "zone": "Maladeta-Aneto",
        "latitude": 42.6310731,
        "longitude": 0.6566457,
        "elevation": 3404.0
    },
    {
        "name": "Punta de la Cruz",
        "alt": "Pointe Ledormeur, Punta Ledormeur",
        "status": "Original",
        "zone": "Batoua-Batchimale",
        "latitude": 42.6999105,
        "longitude": 0.3952905,
        "elevation": 3107.0
    },
    {
        "name": "Punta Culfreda Norte",
        "alt": "Punta Batoa, Culfreda NE",
        "status": "Original-Tocandoelcielo",
        "zone": "Batoua-Batchimale",
        "latitude": 42.7105028,
        "longitude": 0.3395033,
        "elevation": 3033.0
    },
    {
        "name": "Punta Culfreda d'el Medio",
        "alt": "Culfreda Central",
        "status": "Original-Tocandoelcielo",
        "zone": "Batoua-Batchimale",
        "latitude": 42.7099313,
        "longitude": 0.3380227,
        "elevation": 3031.0
    },
    {
        "name": "Tuca de la Forqueta Sur",
        "alt": "Forqueta SE",
        "status": "Original-Tocandoelcielo",
        "zone": "Posets-Eriste",
        "latitude": 42.6307304,
        "longitude": 0.4266166,
        "elevation": 3007.0
    },
    {
        "name": "Tuca d'el Forau de la Neu",
        "alt": "Tuca Forao de la Neu",
        "status": "Original-Tocandoelcielo",
        "zone": "Posets-Eriste",
        "latitude": 42.644025,
        "longitude": 0.4280192,
        "elevation": 3076.0
    },
    {
        "name": "Mallo de la Lit / El Tuconet",
        "alt": "Tuca de Llardaneta",
        "status": "Original-Tocandoelcielo",
        "zone": "Posets-Eriste",
        "latitude": 42.6525327,
        "longitude": 0.4305682,
        "elevation": 3311.0
    },
    {
        "name": "Tuqueta Roya",
        "alt": "",
        "status": "Original-Tocandoelcielo",
        "zone": "Posets-Eriste",
        "latitude": 42.6531,
        "longitude": 0.4327481,
        "elevation": 3266.0
    },
    {
        "name": "Tuca de la Paúl",
        "alt": "Pico de la Paúl, Pic de la Paul",
        "status": "Original",
        "zone": "Posets-Eriste",
        "latitude": 42.6605688,
        "longitude": 0.4462766,
        "elevation": 3079.0
    },
    {
        "name": "Punta Lacq",
        "alt": "",
        "status": "Original",
        "zone": "Unknown",
        "latitude": 42.7039186,
        "longitude": 0.5234295,
        "elevation": 3010.0
    },
    {
        "name": "Aguja Inferior de Lézat",
        "alt": "",
        "status": "Original",
        "zone": "Unknown",
        "latitude": 42.7050096,
        "longitude": 0.5203008,
        "elevation": 3023.0
    },
    {
        "name": "Aguja Central SE de Lézat",
        "alt": "",
        "status": "Original",
        "zone": "Unknown",
        "latitude": 42.7054724,
        "longitude": 0.5198332,
        "elevation": 3037.0
    },
    {
        "name": "Aguja Central NW de Lézat",
        "alt": "",
        "status": "Original",
        "zone": "Unknown",
        "latitude": 42.7058207,
        "longitude": 0.5192036,
        "elevation": 3058.0
    },
    {
        "name": "Aguja Superior de Lézat",
        "alt": "",
        "status": "Original",
        "zone": "Unknown",
        "latitude": 42.7062007,
        "longitude": 0.518787,
        "elevation": 3069.0
    },
    {
        "name": "Aguja Jean Garnier",
        "alt": "",
        "status": "Original",
        "zone": "Unknown",
        "latitude": 42.701251,
        "longitude": 0.5330515,
        "elevation": 3025.0
    },
    {
        "name": "Tuca d'el Portillón d'O",
        "alt": "Tuca d'el Portillón d'el Molsero, Pic du Portillon d'Oô",
        "status": "Original",
        "zone": "Clarabide-Perdiguero-Boum",
        "latitude": 42.6927035,
        "longitude": 0.5073666,
        "elevation": 3050.0
    },
    {
        "name": "Pequeño Pico Portillón",
        "alt": "",
        "status": "Original",
        "zone": "Unknown",
        "latitude": 42.6928076,
        "longitude": 0.5026976,
        "elevation": 3000.0
    },
    {
        "name": "Pico Audoubert",
        "alt": "",
        "status": "Original",
        "zone": "Unknown",
        "latitude": 42.6962004,
        "longitude": 0.4892999,
        "elevation": 3045.0
    },
    {
        "name": "Tuca d'el Sellán de la Vaca",
        "alt": "",
        "status": "Original",
        "zone": "Unknown",
        "latitude": 42.6931007,
        "longitude": 0.4927623,
        "elevation": 3104.0
    },
    {
        "name": "Pointe Belloc Sud",
        "alt": "",
        "status": "Original",
        "zone": "Unknown",
        "latitude": 42.7126732,
        "longitude": 0.4800128,
        "elevation": 3007.0
    },
    {
        "name": "Pointe Belloc Central",
        "alt": "",
        "status": "Original",
        "zone": "Unknown",
        "latitude": 42.7131173,
        "longitude": 0.479742,
        "elevation": 3006.0
    },
    {
        "name": "Pico Belloc",
        "alt": "",
        "status": "Original",
        "zone": "Clarabide-Perdiguero-Boum",
        "latitude": 42.7138699,
        "longitude": 0.4793732,
        "elevation": 3008.0
    },
    {
        "name": "Tuca d'el Puerto d'O",
        "alt": "Pic Jean Arlaud, Tuca d'O",
        "status": "Original",
        "zone": "Clarabide-Perdiguero-Boum",
        "latitude": 42.6996336,
        "longitude": 0.4811743,
        "elevation": 3065.0
    },
    {
        "name": "Torre Armengaud",
        "alt": "",
        "status": "Original",
        "zone": "Unknown",
        "latitude": 42.7000247,
        "longitude": 0.4764121,
        "elevation": 3114.0
    },
    {
        "name": "Tuca de Puixebres",
        "alt": "",
        "status": "Original",
        "zone": "Unknown",
        "latitude": 42.7000919,
        "longitude": 0.4740858,
        "elevation": 3104.0
    },
    {
        "name": "Pico Camboué",
        "alt": "Pic Camboué",
        "status": "Original",
        "zone": "Clarabide-Perdiguero-Boum",
        "latitude": 42.7023469,
        "longitude": 0.4715431,
        "elevation": 3043.0
    },
    {
        "name": "Pico Saint-Saud",
        "alt": "Pic Saint Saud",
        "status": "Original",
        "zone": "Clarabide-Perdiguero-Boum",
        "latitude": 42.7022129,
        "longitude": 0.4678845,
        "elevation": 3003.0
    },
    {
        "name": "Cap de la Tartereta",
        "alt": "",
        "status": "Original",
        "zone": "Unknown",
        "latitude": 42.6165797,
        "longitude": 0.6770269,
        "elevation": 3051.0
    },
    {
        "name": "Antecima SE de Russell",
        "alt": "",
        "status": "Original",
        "zone": "Unknown",
        "latitude": 42.6174057,
        "longitude": 0.6719174,
        "elevation": 3206.0
    },
    {
        "name": "Cap de la Vall",
        "alt": "",
        "status": "Original",
        "zone": "Unknown",
        "latitude": 42.6216887,
        "longitude": 0.6675911,
        "elevation": 3197.0
    },
    {
        "name": "",
        "alt": "",
        "status": "Original",
        "zone": "Unknown",
        "latitude": 42.62547,
        "longitude": 0.6722557,
        "elevation": 3045.0
    },
    {
        "name": "Esquena de l'Aneto",
        "alt": "Epaule de l'Aneto, Espalda del Aneto",
        "status": "Original",
        "zone": "Maladeta-Aneto",
        "latitude": 42.6293104,
        "longitude": 0.6596985,
        "elevation": 3345.0
    },
    {
        "name": "Agulla d'Argarot",
        "alt": "",
        "status": "Original",
        "zone": "Unknown",
        "latitude": 42.6242901,
        "longitude": 0.6448056,
        "elevation": 3036.0
    },
    {
        "name": "Forqueta de Llosás / Agulla deTchihatcheff",
        "alt": "",
        "status": "Original",
        "zone": "Unknown",
        "latitude": 42.624652,
        "longitude": 0.6448567,
        "elevation": 3052.0
    },
    {
        "name": "Agulla de Franqueville",
        "alt": "",
        "status": "Original",
        "zone": "Unknown",
        "latitude": 42.6251144,
        "longitude": 0.6468218,
        "elevation": 3061.0
    },
    {
        "name": "Aguja Escudier",
        "alt": "",
        "status": "Original",
        "zone": "Unknown",
        "latitude": 42.6302501,
        "longitude": 0.6547218,
        "elevation": 3340.0
    },
    {
        "name": "Aguja Daviu",
        "alt": "",
        "status": "Original",
        "zone": "Unknown",
        "latitude": 42.6304122,
        "longitude": 0.655618,
        "elevation": 3350.0
    },
    {
        "name": "Agulla de la Collada de Corones",
        "alt": "",
        "status": "Original",
        "zone": "Unknown",
        "latitude": 42.6359083,
        "longitude": 0.6509936,
        "elevation": 3286.0
    },
    {
        "name": "Agulla de Juncadella",
        "alt": "",
        "status": "Original",
        "zone": "Unknown",
        "latitude": 42.6334377,
        "longitude": 0.6322106,
        "elevation": 3022.0
    },
    {
        "name": "Agulla de la Roca de Cregüeña",
        "alt": "",
        "status": "Original",
        "zone": "Unknown",
        "latitude": 42.6346691,
        "longitude": 0.6357372,
        "elevation": 3041.0
    },
    {
        "name": "Agulla d'Haurillon",
        "alt": "",
        "status": "Original",
        "zone": "Unknown",
        "latitude": 42.6351901,
        "longitude": 0.6370246,
        "elevation": 3073.0
    },
    {
        "name": "Tuca d'el Cuello de la Rimalla",
        "alt": "",
        "status": "Original",
        "zone": "Unknown",
        "latitude": 42.6477308,
        "longitude": 0.6369312,
        "elevation": 3261.0
    },
    {
        "name": "Tuca d'el Morro de Cregüeña N",
        "alt": "",
        "status": "Original",
        "zone": "Unknown",
        "latitude": 42.6487281,
        "longitude": 0.6278389,
        "elevation": 3152.0
    },
    {
        "name": "Tuca de Mur",
        "alt": "Pico Mir, Tercer Pico Occidental de la Maladeta, Maladeta Occidental 3",
        "status": "Original",
        "zone": "Maladeta-Aneto",
        "latitude": 42.6531147,
        "longitude": 0.628693,
        "elevation": 3187.0
    },
    {
        "name": "Pic de Boum",
        "alt": "",
        "status": "Original",
        "zone": "Clarabide-Perdiguero-Boum",
        "latitude": 42.6993707,
        "longitude": 0.5575771,
        "elevation": 3006.0
    },
    {
        "name": "Agulla de la Brecha de Llosás",
        "alt": "",
        "status": "Original",
        "zone": "Unknown",
        "latitude": 42.6280484,
        "longitude": 0.6499838,
        "elevation": 3088.0
    },
    {
        "name": "",
        "alt": "",
        "status": "Original",
        "zone": "Unknown",
        "latitude": 42.6247377,
        "longitude": 0.6456144,
        "elevation": 3045.0
    },
    {
        "name": "Tuca de la Rimalla",
        "alt": "",
        "status": "Original",
        "zone": "Unknown",
        "latitude": 42.6486702,
        "longitude": 0.6352925,
        "elevation": 3261.0
    },
    {
        "name": "Tuca d'el Cabo de la Vaca E.",
        "alt": "",
        "status": "Original",
        "zone": "Unknown",
        "latitude": 42.6945112,
        "longitude": 0.4920976,
        "elevation": 3097.0
    },
    {
        "name": "Tuca de l'Estraperlo",
        "alt": "Crabioles Occidental, Crabioules Occidental",
        "status": "Original",
        "zone": "Clarabide-Perdiguero-Boum",
        "latitude": 42.7026745,
        "longitude": 0.5266251,
        "elevation": 3102.0
    },
    {
        "name": "Pico de Gías Inferior",
        "alt": "",
        "status": "Original",
        "zone": "Unknown",
        "latitude": 42.6933554,
        "longitude": 0.4711878,
        "elevation": 3000.0
    },
    {
        "name": "Tuca de Navarro",
        "alt": "",
        "status": "Original",
        "zone": "Unknown",
        "latitude": 42.7002331,
        "longitude": 0.5396271,
        "elevation": 3039.0
    },
    {
        "name": "Pico Occidental de Clarabide",
        "alt": "",
        "status": "Original",
        "zone": "Unknown",
        "latitude": 42.6944619,
        "longitude": 0.4661541,
        "elevation": 3008.0
    },
    {
        "name": "Punta de la Lit",
        "alt": "",
        "status": "Original",
        "zone": "Unknown",
        "latitude": 42.6518198,
        "longitude": 0.4291557,
        "elevation": 3292.0
    },
    {
        "name": "Punta de Peña Solana",
        "alt": "Tuca de Bagüeñola Sur, Pico Eriste Sur",
        "status": "Original",
        "zone": "Posets-Eriste",
        "latitude": 42.6231408,
        "longitude": 0.4090307,
        "elevation": 3041.0
    },
    {
        "name": "Bachimala Chicot S",
        "alt": "Punta del Ibón",
        "status": "Unofficial",
        "zone": "Batoua-Batchimale",
        "latitude": 42.7063983,
        "longitude": 0.3935444,
        "elevation": 3052.0
    },
    {
        "name": "",
        "alt": "",
        "status": "Original",
        "zone": "Unknown",
        "latitude": 42.7087362,
        "longitude": 0.3932349,
        "elevation": 3038.0
    },
    {
        "name": "Aguja Literola",
        "alt": "",
        "status": "Original",
        "zone": "Unknown",
        "latitude": 42.7004867,
        "longitude": 0.526188,
        "elevation": 3035.0
    },
    {
        "name": "Aguja del Collado de Coronas",
        "alt": "",
        "status": "Original",
        "zone": "Unknown",
        "latitude": 42.6343103,
        "longitude": 0.6525087,
        "elevation": 3228.0
    },
    {
        "name": "Aguja Schmidt-Endell",
        "alt": "",
        "status": "Original",
        "zone": "Unknown",
        "latitude": 42.6398847,
        "longitude": 0.6409541,
        "elevation": 3335.0
    },
    {
        "name": "Punta d'el Puerto",
        "alt": "Pico Puerto de la Pez, Pico del Puerto, Pic du Port de la Pez",
        "status": "Original",
        "zone": "Batoua-Batchimale",
        "latitude": 42.7111269,
        "longitude": 0.384987,
        "elevation": 3018.0
    },
    {
        "name": "Punta de la Pez",
        "alt": "Pic de la Pez",
        "status": "Original",
        "zone": "Batoua-Batchimale",
        "latitude": 42.7106706,
        "longitude": 0.3846791,
        "elevation": 3024.0
    },
    {
        "name": "",
        "alt": "",
        "status": "Original",
        "zone": "Unknown",
        "latitude": 42.652941,
        "longitude": 0.6268671,
        "elevation": 3092.0
    },
    {
        "name": "",
        "alt": "",
        "status": "Original",
        "zone": "Unknown",
        "latitude": 42.653019,
        "longitude": 0.626584,
        "elevation": 3092.0
    },
    {
        "name": "Perdiguero",
        "alt": "Perdiguère",
        "status": "Original",
        "zone": "Clarabide-Perdiguero-Boum",
        "latitude": 42.6920006,
        "longitude": 0.5188647,
        "elevation": 3222.0
    },
    {
        "name": "Punta Mamy",
        "alt": "",
        "status": "Original",
        "zone": "Unknown",
        "latitude": 42.7030128,
        "longitude": 0.5252877,
        "elevation": 3048.0
    },
    {
        "name": "Aguja de Alba",
        "alt": "",
        "status": "Original",
        "zone": "Unknown",
        "latitude": 42.6556001,
        "longitude": 0.6186632,
        "elevation": 3054.0
    },
    {
        "name": "Agulla de la Solaneta",
        "alt": "",
        "status": "Original",
        "zone": "Unknown",
        "latitude": 42.6169465,
        "longitude": 0.6676464,
        "elevation": 3034.0
    },
    {
        "name": "Tuqueta Roya de Cregüeña",
        "alt": "",
        "status": "Original",
        "zone": "Unknown",
        "latitude": 42.6424773,
        "longitude": 0.6384646,
        "elevation": 3271.0
    },
    {
        "name": "Agulla d'Ixalenques",
        "alt": "",
        "status": "Original",
        "zone": "Unknown",
        "latitude": 42.6253317,
        "longitude": 0.6685005,
        "elevation": 3132.0
    },
    {
        "name": "Torre d'Ixalenques",
        "alt": "",
        "status": "Original",
        "zone": "Unknown",
        "latitude": 42.6256095,
        "longitude": 0.6705106,
        "elevation": 3111.0
    },
    {
        "name": "",
        "alt": "",
        "status": "Original",
        "zone": "Unknown",
        "latitude": 42.5936681,
        "longitude": 0.654405,
        "elevation": 3054.0
    },
    {
        "name": "Pic de Troumouse",
        "alt": "",
        "status": "Original",
        "zone": "La Munia",
        "latitude": 42.7224452,
        "longitude": 0.1367431,
        "elevation": 3085.0
    },
    {
        "name": "Pic de Lustou",
        "alt": "",
        "status": "Original",
        "zone": "Batoua-Batchimale",
        "latitude": 42.7347815,
        "longitude": 0.3600008,
        "elevation": 3023.0
    },
    {
        "name": "Munia",
        "alt": "Pic de la Munia, Almunia Gran",
        "status": "Original",
        "zone": "La Munia",
        "latitude": 42.7148957,
        "longitude": 0.1319236,
        "elevation": 3133.0
    },
    {
        "name": "Pic de Serre de Mourène",
        "alt": "Punta de las Loseras, Sierra Morena",
        "status": "Original",
        "zone": "La Munia",
        "latitude": 42.7207426,
        "longitude": 0.1353078,
        "elevation": 3090.0
    },
    {
        "name": "Pic Heid",
        "alt": "",
        "status": "Original",
        "zone": "La Munia",
        "latitude": 42.7286951,
        "longitude": 0.135119,
        "elevation": 3022.0
    },
    {
        "name": "Pic de Néouvielle",
        "alt": "",
        "status": "Original",
        "zone": "Néouvielle-Pic Long",
        "latitude": 42.8353661,
        "longitude": 0.1151204,
        "elevation": 3091.0
    },
    {
        "name": "Pic de Campbieil",
        "alt": "",
        "status": "Original",
        "zone": "Néouvielle-Pic Long",
        "latitude": 42.792033,
        "longitude": 0.1197083,
        "elevation": 3173.0
    },
    {
        "name": "Pic d'Estaragne",
        "alt": "",
        "status": "Original",
        "zone": "Néouvielle-Pic Long",
        "latitude": 42.7971603,
        "longitude": 0.1302987,
        "elevation": 3006.0
    },
    {
        "name": "Pic Ramougn",
        "alt": "",
        "status": "Original",
        "zone": "Néouvielle-Pic Long",
        "latitude": 42.8348178,
        "longitude": 0.1201617,
        "elevation": 3011.0
    },
    {
        "name": "Pic de Lentilla",
        "alt": "Pic de la Lentilla",
        "status": "New-Tocandoelcielo",
        "zone": "Néouvielle-Pic Long",
        "latitude": 42.7888571,
        "longitude": 0.1171267,
        "elevation": 3157.0
    },
    {
        "name": "Pointe Aires",
        "alt": "",
        "status": "Original",
        "zone": "Unknown",
        "latitude": 42.7272805,
        "longitude": 0.1352262,
        "elevation": 3028.0
    },
    {
        "name": "Pico de l'Almunia Chica",
        "alt": "",
        "status": "Original",
        "zone": "Unknown",
        "latitude": 42.7160792,
        "longitude": 0.1334718,
        "elevation": 3096.0
    },
    {
        "name": "Grand Astazou",
        "alt": "Astazou Oriental",
        "status": "Original",
        "zone": "Monte Perdido",
        "latitude": 42.7024839,
        "longitude": 0.0236816,
        "elevation": 3071.0
    },
    {
        "name": "Monte Perdido",
        "alt": "Punta de Treserols",
        "status": "Original",
        "zone": "Monte Perdido",
        "latitude": 42.6755485,
        "longitude": 0.0343568,
        "elevation": 3355.0
    },
    {
        "name": "Cilindro de Marboré",
        "alt": "Mallo de Marmorés",
        "status": "Original",
        "zone": "Monte Perdido",
        "latitude": 42.6847945,
        "longitude": 0.0238657,
        "elevation": 3325.0
    },
    {
        "name": "Le Casque du Marboré",
        "alt": "",
        "status": "Original",
        "zone": "Monte Perdido",
        "latitude": 42.6877707,
        "longitude": -0.0267577,
        "elevation": 3011.0
    },
    {
        "name": "Punda dero Espaldador",
        "alt": "Pico del Hombro, Espalda de Marboré, Épaule du Marboré",
        "status": "Original",
        "zone": "Unknown",
        "latitude": 42.6853412,
        "longitude": 0.0002861,
        "elevation": 3073.0
    },
    {
        "name": "Petit Astazou",
        "alt": "Astazou occidental",
        "status": "Original",
        "zone": "Monte Perdido",
        "latitude": 42.7018762,
        "longitude": 0.014493,
        "elevation": 3015.0
    },
    {
        "name": "Punda deras Solas",
        "alt": "Punta de las Olas",
        "status": "Original",
        "zone": "Monte Perdido",
        "latitude": 42.6621893,
        "longitude": 0.0534743,
        "elevation": 3022.0
    },
    {
        "name": "Punda dera Ula",
        "alt": "Pico de la Espalda, Picos de la Cascada Occidental, Pic occidental de la Cascade",
        "status": "Original",
        "zone": "Monte Perdido",
        "latitude": 42.6866993,
        "longitude": 0.0024152,
        "elevation": 3098.0
    },
    {
        "name": "Pico Royo",
        "alt": "",
        "status": "Original",
        "zone": "Unknown",
        "latitude": 42.6908419,
        "longitude": -0.0544752,
        "elevation": 3051.0
    },
    {
        "name": "Pico d'Añisclo",
        "alt": "Soum de Ramond",
        "status": "Original",
        "zone": "Monte Perdido",
        "latitude": 42.6695882,
        "longitude": 0.0431364,
        "elevation": 3257.0
    },
    {
        "name": "Punda dero Cabieto",
        "alt": "Gabieto Sur, Gabietou occidental",
        "status": "Original",
        "zone": "Monte Perdido",
        "latitude": 42.6928707,
        "longitude": -0.0652245,
        "elevation": 3035.0
    },
    {
        "name": "Punda Negra",
        "alt": "Tallón, Taillon, Pic du Taillon",
        "status": "Original",
        "zone": "Monte Perdido",
        "latitude": 42.6936421,
        "longitude": -0.0512874,
        "elevation": 3144.0
    },
    {
        "name": "Pico Plan de Marmorés",
        "alt": "Marboré",
        "status": "Original",
        "zone": "Monte Perdido",
        "latitude": 42.6928281,
        "longitude": 0.0116476,
        "elevation": 3251.0
    },
    {
        "name": "Tour du Marboré",
        "alt": "",
        "status": "Original",
        "zone": "Monte Perdido",
        "latitude": 42.685787,
        "longitude": -0.0170776,
        "elevation": 3012.0
    },
    {
        "name": "Cabieto dera Buega",
        "alt": "Gabieto Norte, Gabietou oriental",
        "status": "Original",
        "zone": "Monte Perdido",
        "latitude": 42.6945736,
        "longitude": -0.0620987,
        "elevation": 3031.0
    },
    {
        "name": "Pundeta de Peña Roya",
        "alt": "",
        "status": "Original",
        "zone": "Unknown",
        "latitude": 42.6810391,
        "longitude": 0.020907,
        "elevation": 3194.0
    },
    {
        "name": "Peña dero Baste",
        "alt": "",
        "status": "Original",
        "zone": "Unknown",
        "latitude": 42.6698029,
        "longitude": 0.029876,
        "elevation": 3027.0
    },
    {
        "name": "Repunta de las Neveras",
        "alt": "",
        "status": "Original",
        "zone": "Unknown",
        "latitude": 42.6772465,
        "longitude": 0.0430264,
        "elevation": 3078.0
    },
    {
        "name": "Mallo de Tormosa",
        "alt": "Baudrimont NW",
        "status": "Original",
        "zone": "Monte Perdido",
        "latitude": 42.6732435,
        "longitude": 0.046563,
        "elevation": 3045.0
    },
    {
        "name": "Punta de Tormosa",
        "alt": "Baudrimont SE",
        "status": "Original",
        "zone": "Monte Perdido",
        "latitude": 42.6695604,
        "longitude": 0.0520873,
        "elevation": 3026.0
    },
    {
        "name": "Punda dero Sarrato",
        "alt": "",
        "status": "Original",
        "zone": "Unknown",
        "latitude": 42.6799324,
        "longitude": 0.0307426,
        "elevation": 3174.0
    },
    {
        "name": "Mallet dero Portiello",
        "alt": "",
        "status": "Original",
        "zone": "Unknown",
        "latitude": 42.6790915,
        "longitude": 0.0315817,
        "elevation": 3185.0
    },
    {
        "name": "Tozalón dera Nieu",
        "alt": "",
        "status": "Original",
        "zone": "Unknown",
        "latitude": 42.6854521,
        "longitude": 0.0188935,
        "elevation": 3093.0
    },
    {
        "name": "Punda deras Crepas",
        "alt": "Pic oriental de la Cascade, Picos de la Cascada Oriental",
        "status": "Original",
        "zone": "Monte Perdido",
        "latitude": 42.6899584,
        "longitude": 0.0078224,
        "elevation": 3161.0
    },
    {
        "name": "Picos de la Cascada Central",
        "alt": "Pic Brulle",
        "status": "Original",
        "zone": "Monte Perdido",
        "latitude": 42.6888393,
        "longitude": 0.0051176,
        "elevation": 3111.0
    },
    {
        "name": "Unknown",
        "alt": "",
        "status": "Original",
        "zone": "Unknown",
        "latitude": 42.6890466,
        "longitude": 0.0195289,
        "elevation": 3182.0
    },
    {
        "name": "Unknown",
        "alt": "",
        "status": "Original",
        "zone": "Unknown",
        "latitude": 42.6877047,
        "longitude": 0.0213055,
        "elevation": 3202.0
    },
    {
        "name": "Punta dera Cuniestra",
        "alt": "",
        "status": "Original",
        "zone": "Unknown",
        "latitude": 42.6718772,
        "longitude": 0.0419024,
        "elevation": 3235.0
    },
    {
        "name": "Unknown",
        "alt": "",
        "status": "Original",
        "zone": "Unknown",
        "latitude": 42.6938702,
        "longitude": -0.0630793,
        "elevation": 3018.0
    },
    {
        "name": "Gabieto Sur",
        "alt": "",
        "status": "Original",
        "zone": "Unknown",
        "latitude": 42.6925653,
        "longitude": -0.0656869,
        "elevation": 3031.0
    },
    {
        "name": "Pic Long",
        "alt": "",
        "status": "Original",
        "zone": "Néouvielle-Pic Long",
        "latitude": 42.8008266,
        "longitude": 0.1001273,
        "elevation": 3192.0
    },
    {
        "name": "Pic de Cerbillona",
        "alt": "Cerbillonar, Pico de la Cerbillonera",
        "status": "Original",
        "zone": "Vignemale",
        "latitude": 42.7691997,
        "longitude": -0.1498045,
        "elevation": 3247.0
    },
    {
        "name": "Pic du Balaïtous",
        "alt": "Balaitous",
        "status": "Original",
        "zone": "Balaïtous-Enfer-Argualas",
        "latitude": 42.8389387,
        "longitude": -0.290257,
        "elevation": 3146.0
    },
    {
        "name": "Petit Vignemale",
        "alt": "",
        "status": "Original",
        "zone": "Vignemale",
        "latitude": 42.774699,
        "longitude": -0.135048,
        "elevation": 3032.0
    },
    {
        "name": "Pico de Montferrato",
        "alt": "Pico de Montferrato",
        "status": "Original",
        "zone": "Vignemale",
        "latitude": 42.7666277,
        "longitude": -0.1382876,
        "elevation": 3219.0
    },
    {
        "name": "Grande Fache",
        "alt": "Gran Facha",
        "status": "Original",
        "zone": "Balaïtous-Enfer-Argualas",
        "latitude": 42.8081942,
        "longitude": -0.237874,
        "elevation": 3005.0
    },
    {
        "name": "Garmo Negro",
        "alt": "",
        "status": "Original",
        "zone": "Balaïtous-Enfer-Argualas",
        "latitude": 42.7716445,
        "longitude": -0.2641782,
        "elevation": 3064.0
    },
    {
        "name": "Vignemale - Pique longue",
        "alt": "Vignemale",
        "status": "Original",
        "zone": "Vignemale",
        "latitude": 42.773943,
        "longitude": -0.1473437,
        "elevation": 3298.0
    },
    {
        "name": "Aguja Cadier",
        "alt": "",
        "status": "Original-Tocandoelcielo",
        "zone": "Balaïtous-Enfer-Argualas",
        "latitude": 42.83432,
        "longitude": -0.2898718,
        "elevation": 3022.0
    },
    {
        "name": "Algas SE",
        "alt": "",
        "status": "New-Tocandoelcielo",
        "zone": "Balaïtous-Enfer-Argualas",
        "latitude": 42.7675416,
        "longitude": -0.2698734,
        "elevation": 3025.0
    },
    {
        "name": "Algas N",
        "alt": "",
        "status": "Removed",
        "zone": "Balaïtous-Enfer-Argualas",
        "latitude": 42.7695806,
        "longitude": -0.2709506,
        "elevation": 3032.0
    },
    {
        "name": "Agulla d'Ussel",
        "alt": "Aiguille d'Ussel ",
        "status": "Original-Tocandoelcielo",
        "zone": "Balaïtous-Enfer-Argualas",
        "latitude": 42.8376244,
        "longitude": -0.2841643,
        "elevation": 3022.0
    },
    {
        "name": "Aguja de Pondiellos",
        "alt": "Agulla de Pondiellos, Aiguille de Pondiellos",
        "status": "Original-Tocandoelcielo",
        "zone": "Balaïtous-Enfer-Argualas",
        "latitude": 42.7718304,
        "longitude": -0.2621429,
        "elevation": 3011.0
    },
    {
        "name": "Pico Argualas",
        "alt": "",
        "status": "Original",
        "zone": "Balaïtous-Enfer-Argualas",
        "latitude": 42.7664853,
        "longitude": -0.2668997,
        "elevation": 3044.0
    },
    {
        "name": "Punda dero Corral",
        "alt": "",
        "status": "Original",
        "zone": "Unknown",
        "latitude": 42.7675455,
        "longitude": -0.2712949,
        "elevation": 3003.0
    },
    {
        "name": "Frondella SW",
        "alt": "Frondiella Occidental",
        "status": "Removed",
        "zone": "Balaïtous-Enfer-Argualas",
        "latitude": 42.8285479,
        "longitude": -0.2975106,
        "elevation": 2992.0
    },
    {
        "name": "Frondella",
        "alt": "Frondella central",
        "status": "Original-Tocandoelcielo",
        "zone": "Balaïtous-Enfer-Argualas",
        "latitude": 42.8321527,
        "longitude": -0.2928759,
        "elevation": 3055.0
    },
    {
        "name": "Infierno Occidental",
        "alt": "Enfer Occidental",
        "status": "Original",
        "zone": "Balaïtous-Enfer-Argualas",
        "latitude": 42.7831253,
        "longitude": -0.2632365,
        "elevation": 3075.0
    },
    {
        "name": "Infierno Central",
        "alt": "Enfer Central",
        "status": "Original",
        "zone": "Balaïtous-Enfer-Argualas",
        "latitude": 42.7814949,
        "longitude": -0.2605587,
        "elevation": 3080.0
    },
    {
        "name": "Punda Alta deras Frondiellas",
        "alt": "Frondella NW, Frondella Punta Oriental, Frondiella Oriental",
        "status": "Original",
        "zone": "Balaïtous-Enfer-Argualas",
        "latitude": 42.8330662,
        "longitude": -0.2903135,
        "elevation": 3071.0
    },
    {
        "name": "Pico Arnales",
        "alt": "",
        "status": "Original",
        "zone": "Balaïtous-Enfer-Argualas",
        "latitude": 42.7801254,
        "longitude": -0.2560053,
        "elevation": 3001.0
    },
    {
        "name": "Piton Carré",
        "alt": "",
        "status": "Original",
        "zone": "Vignemale",
        "latitude": 42.7734295,
        "longitude": -0.1449871,
        "elevation": 3197.0
    },
    {
        "name": "Pointe Chausenque",
        "alt": "",
        "status": "Original",
        "zone": "Vignemale",
        "latitude": 42.7734628,
        "longitude": -0.1422823,
        "elevation": 3204.0
    },
    {
        "name": "Pico Algas",
        "alt": "",
        "status": "Original",
        "zone": "Balaïtous-Enfer-Argualas",
        "latitude": 42.7683164,
        "longitude": -0.2706457,
        "elevation": 3036.0
    },
    {
        "name": "Pic Badet",
        "alt": "",
        "status": "Original",
        "zone": "Néouvielle-Pic Long",
        "latitude": 42.7977717,
        "longitude": 0.1042392,
        "elevation": 3160.0
    },
    {
        "name": "Pic Maou",
        "alt": "",
        "status": "Original",
        "zone": "Néouvielle-Pic Long",
        "latitude": 42.7941054,
        "longitude": 0.1058456,
        "elevation": 3074.0
    },
    {
        "name": "Pic des Trois Conseillers",
        "alt": "",
        "status": "Original",
        "zone": "Néouvielle-Pic Long",
        "latitude": 42.831159,
        "longitude": 0.1129302,
        "elevation": 3039.0
    },
    {
        "name": "Turon de Néouvielle",
        "alt": "",
        "status": "Original",
        "zone": "Néouvielle-Pic Long",
        "latitude": 42.8277711,
        "longitude": 0.1077501,
        "elevation": 3035.0
    },
    {
        "name": "Infierno Oriental",
        "alt": "Enfer Oriental",
        "status": "Original",
        "zone": "Balaïtous-Enfer-Argualas",
        "latitude": 42.781345,
        "longitude": -0.2590393,
        "elevation": 3076.0
    },
    {
        "name": "O Casterillet",
        "alt": "Torre de Cadier, Tour de Costérillou, Torre Costerillou",
        "status": "Original-Tocandoelcielo",
        "zone": "Balaïtous-Enfer-Argualas",
        "latitude": 42.8376788,
        "longitude": -0.2859567,
        "elevation": 3049.0
    },
    {
        "name": "Pale Crabounouse",
        "alt": "",
        "status": "Original",
        "zone": "Néouvielle-Pic Long",
        "latitude": 42.8031583,
        "longitude": 0.0880206,
        "elevation": 3021.0
    },
    {
        "name": "Bugarret",
        "alt": "",
        "status": "Original",
        "zone": "Néouvielle-Pic Long",
        "latitude": 42.8010064,
        "longitude": 0.0915211,
        "elevation": 3031.0
    },
    {
        "name": "Dent D'Estibère Male",
        "alt": "Dent D'Estibère",
        "status": "Original",
        "zone": "Néouvielle-Pic Long",
        "latitude": 42.800697,
        "longitude": 0.0944013,
        "elevation": 3017.0
    },
    {
        "name": "Pic Clot de la Hount",
        "alt": "",
        "status": "Original",
        "zone": "Vignemale",
        "latitude": 42.7731887,
        "longitude": -0.1497252,
        "elevation": 3289.0
    },
    {
        "name": "Pic Central",
        "alt": "",
        "status": "Original",
        "zone": "Vignemale",
        "latitude": 42.7683635,
        "longitude": -0.1465632,
        "elevation": 3235.0
    },
    {
        "name": "Grand Pic de Tapou",
        "alt": "",
        "status": "Original",
        "zone": "Vignemale",
        "latitude": 42.7627842,
        "longitude": -0.1358368,
        "elevation": 3151.0
    },
    {
        "name": "Pic du Milieu",
        "alt": "",
        "status": "Original",
        "zone": "Vignemale",
        "latitude": 42.7615778,
        "longitude": -0.1364073,
        "elevation": 3130.0
    },
    {
        "name": "Aiguille Tourrat",
        "alt": "",
        "status": "Original",
        "zone": "Unknown",
        "latitude": 42.8048196,
        "longitude": 0.1036836,
        "elevation": 3014.0
    },
    {
        "name": "Pic Maubic",
        "alt": "",
        "status": "Original",
        "zone": "Néouvielle-Pic Long",
        "latitude": 42.8027444,
        "longitude": 0.1029226,
        "elevation": 3058.0
    },
    {
        "name": "Garmo de Pondiellos",
        "alt": "Aiguille d'Arnales, Aguja de Arnales",
        "status": "New-Tocandoelcielo",
        "zone": "Balaïtous-Enfer-Argualas",
        "latitude": 42.7809139,
        "longitude": -0.2575239,
        "elevation": 3020.0
    },
    {
        "name": "Frondella N",
        "alt": "Frondiella N",
        "status": "Original-Tocandoelcielo",
        "zone": "Balaïtous-Enfer-Argualas",
        "latitude": 42.8334727,
        "longitude": -0.2901468,
        "elevation": 3062.0
    },
    {
        "name": "Tetons dera Labaza",
        "alt": "",
        "status": "Original",
        "zone": "Unknown",
        "latitude": 42.7635186,
        "longitude": -0.1358584,
        "elevation": 3124.0
    },
    {
        "name": "Punta Superior del Tapou",
        "alt": "",
        "status": "Original",
        "zone": "Unknown",
        "latitude": 42.7640917,
        "longitude": -0.1365252,
        "elevation": 3132.0
    },
    {
        "name": "Aguja Inferior Clot de la Hount",
        "alt": "",
        "status": "Original",
        "zone": "Unknown",
        "latitude": 42.7744781,
        "longitude": -0.1546906,
        "elevation": 3043.0
    },
    {
        "name": "Aiguille supérieure du Clot de la Hount",
        "alt": "",
        "status": "Original",
        "zone": "Unknown",
        "latitude": 42.7738812,
        "longitude": -0.1532758,
        "elevation": 3119.0
    },
    {
        "name": "Garmo deros Musarez",
        "alt": "",
        "status": "Original",
        "zone": "Unknown",
        "latitude": 42.7676018,
        "longitude": -0.1524952,
        "elevation": 3051.0
    },
    {
        "name": "Espalda Chausenque",
        "alt": "",
        "status": "Original",
        "zone": "Unknown",
        "latitude": 42.7732923,
        "longitude": -0.1400177,
        "elevation": 3154.0
    },
    {
        "name": "Pale Crabounouse N.",
        "alt": "",
        "status": "New-Tocandoelcielo",
        "zone": "Néouvielle-Pic Long",
        "latitude": 42.8044299,
        "longitude": 0.089618,
        "elevation": 3016.0
    },
    {
        "name": "Aguja Badet",
        "alt": "",
        "status": "Original",
        "zone": "Unknown",
        "latitude": 42.7988645,
        "longitude": 0.102117,
        "elevation": 3135.0
    },
    {
        "name": "Premier Conseiller",
        "alt": "",
        "status": "New-Tocandoelcielo",
        "zone": "Néouvielle-Pic Long",
        "latitude": 42.8299126,
        "longitude": 0.1099062,
        "elevation": 3035.0
    }
]